ride_id	rideable_type	started_at	ended_at	start_station_id	end_station_name	end_station_id	start_lat	start_lng	end_lat	end_lng	member_casual	time_of_day	day_of_week	ride_duration_minutes	district	geometry	index_right	STATEFP20	COUNTYFP20	VTDST20	GEOID20	VTDI20	NAME20	NAMELSAD20	LSAD20	MTFCC20	FUNCSTAT20	ALAND20	AWATER20	INTPTLAT20	INTPTLON20
A958943AC3F57F3E	classic_bike	2021-01-01 14:37:29	2021-01-01 14:45:07	31256.0	14th & L St NW	31283.0	38.895914	-77.026064	38.903658	-77.031737	member	afternoon	Friday	7.633333333333334	['Ward 2']	POINT (-77.02606400000001 38.895914)	38.0	11	001	02-129	1100102-129	A	Precinct 129	Precinct 129	00	G5240	N	5511546.0	4586414.0	+38.8801745	-077.0328393
A211FE8F23EDB8AB	classic_bike	2021-01-01 00:47:51	2021-01-01 01:00:14	31120.0	3rd & M St NE	31627.0	38.920387	-77.025672	38.90546971494327	-77.0021304488182	member	early morning	Friday	12.383333333333333	['Ward 1']	POINT (-77.025672 38.920387)	127.0	11	001	02-037	1100102-037	A	Precinct 37	Precinct 37	00	G5240	N	901995.0	0.0	+38.9220218	-077.0221634
FFD46EF1EC21CACF	classic_bike	2021-01-01 09:25:59	2021-01-01 10:24:22	31274.0	8th & H St NW	31228.0	38.89824328774852	-77.02623546123505	38.8997	-77.023086	casual	late morning	Friday	58.38333333333333	['Ward 2']	POINT (-77.02623546123505 38.89824328774852)	38.0	11	001	02-129	1100102-129	A	Precinct 129	Precinct 129	00	G5240	N	5511546.0	4586414.0	+38.8801745	-077.0328393
5D255AA40AC3D2B7	classic_bike	2021-11-30 15:48:31	2021-11-30 16:17:02	31672.0	Potomac & Pennsylvania Ave SE	31606.0	38.899984	-76.992725	38.8803	-76.9862	member	afternoon	Tuesday	28.516666666666666	['Ward 6']	POINT (-76.99272499999999 38.899984)	52.0	11	001	02-082	1100102-082	A	Precinct 82	Precinct 82	00	G5240	N	461624.0	0.0	+38.8997971	-076.9908332
BCD4E1317B107680	docked_bike	2021-01-01 11:00:13	2021-01-01 13:16:16	31263.0	10th & K St NW	31263.0	38.9024	-77.02622	38.9024	-77.02622	casual	afternoon	Friday	136.05	['Ward 2']	POINT (-77.02622 38.9024)	38.0	11	001	02-129	1100102-129	A	Precinct 129	Precinct 129	00	G5240	N	5511546.0	4586414.0	+38.8801745	-077.0328393
45BF0D8F7B5537D4	classic_bike	2021-01-02 19:06:26	2021-01-02 19:31:59	31504.0	10th & Monroe St NE	31504.0	38.932514	-76.992889	38.932514	-76.992889	casual	night	Saturday	25.55		POINT (-76.99288900000001 38.932514)	49.0	11	001	02-073	1100102-073	A	Precinct 73	Precinct 73	00	G5240	N	870324.0	0.0	+38.9290897	-076.9890666
839350B3DED7C723	classic_bike	2023-01-27 18:12:22	2023-01-27 18:28:48	31541.0	3rd & M St NE	31627.0	38.937849	-76.993509	38.90546971494327	-77.0021304488182	member	afternoon	Friday	16.433333333333334		POINT (-76.993509 38.937849)	5.0	11	001	02-068	1100102-068	P	Precinct 68	Precinct 68	00	G5240	S	1791863.0	0.0	+38.9378005	-076.9926736
09C63E367A536CE1	classic_bike	2021-01-01 04:43:58	2021-01-01 05:34:32	31111.0	1st & Washington Hospital Center NW	31507.0	38.9172	-77.0259	38.928743	-77.012457	casual	early morning	Friday	50.56666666666667		POINT (-77.02589999999999 38.9172)	128.0	11	001	02-022	1100102-022	A	Precinct 22	Precinct 22	00	G5240	N	463520.0	0.0	+38.9178986	-077.0299841
74923C15514DD527	classic_bike	2021-01-01 10:32:23	2021-01-01 11:35:01	31219.0	14th & Rhode Island Ave NW	31203.0	38.893028	-77.026013	38.9086	-77.0323	casual	late morning	Friday	62.63333333333333	['Ward 1', 'Ward 2', 'Ward 3', 'Ward 4', 'Ward 5', 'Ward 6', 'Ward 7', 'Ward 8']	POINT (-77.02601300000001 38.893028)	38.0	11	001	02-129	1100102-129	A	Precinct 129	Precinct 129	00	G5240	N	5511546.0	4586414.0	+38.8801745	-077.0328393
D00DECC0E2B613BD	classic_bike	2022-08-18 16:31:42	2022-08-18 16:38:44	31120.0	15th & P St NW	31201.0	38.920387	-77.025672	38.90980062655191	-77.03442692756653	member	afternoon	Thursday	7.033333333333333	['Ward 1']	POINT (-77.025672 38.920387)	127.0	11	001	02-037	1100102-037	A	Precinct 37	Precinct 37	00	G5240	N	901995.0	0.0	+38.9220218	-077.0221634
154265E4D3693004	classic_bike	2021-01-02 11:36:09	2021-01-02 12:35:24	31287.0	Prince St & Union St	31041.0	38.88432272414662	-77.02601015567778	38.803124	-77.040363	casual	late morning	Saturday	59.25		POINT (-77.02601015567778 38.88432272414662)	39.0	11	001	02-142	1100102-142	A	Precinct 142	Precinct 142	00	G5240	N	1185545.0	136323.0	+38.8825835	-077.0248403
1FD529542771B879	classic_bike	2022-08-18 17:05:02	2022-08-18 17:40:35	31535.0	Montello Ave & Holbrook Terr NE	31524.0	38.92248919793601	-76.99267029762268	38.907444	-76.986813	casual	afternoon	Thursday	35.55	['Ward 1', 'Ward 2', 'Ward 3', 'Ward 4', 'Ward 5', 'Ward 6', 'Ward 7', 'Ward 8']	POINT (-76.99267029762268 38.92248919793601)	7.0	11	001	02-074	1100102-074	A	Precinct 74	Precinct 74	00	G5240	N	1514162.0	0.0	+38.9252593	-076.9999360
357C849A7189A8F6	classic_bike	2023-04-25 12:36:26	2023-04-25 13:04:19	31426.0	4th St & Madison Dr NW	31288.0	38.936228	-77.027163	38.8904955	-77.0172465	casual	afternoon	Tuesday	27.883333333333333	['Ward 4']	POINT (-77.027163 38.936228)	140.0	11	001	02-049	1100102-049	A	Precinct 49	Precinct 49	00	G5240	N	168522.0	0.0	+38.9368641	-077.0262520
4FAACD62658E02E6	classic_bike	2021-01-02 09:46:39	2021-01-02 09:50:23	31659.0	Eastern Market / 7th & North Carolina Ave SE	31610.0	38.885908	-76.991476	38.886952	-76.996806	member	late morning	Saturday	3.7333333333333334	['Ward 6']	POINT (-76.99147600000001 38.885908)	64.0	11	001	02-088	1100102-088	A	Precinct 88	Precinct 88	00	G5240	N	385712.0	0.0	+38.8877482	-076.9892697
9151074F638A59A2	electric_bike	2022-08-23 15:46:50	2022-08-23 15:59:54	31136.0	Georgia & Missouri Ave NW	31411.0	38.92209983333333	-77.02704633333333	38.961339	-77.027855	casual	afternoon	Tuesday	13.066666666666666	['Ward 1']	POINT (-77.02704633333333 38.92209983333333)	138.0	11	001	02-023	1100102-023	A	Precinct 23	Precinct 23	00	G5240	N	328347.0	0.0	+38.9217768	-077.0320668
18028C76D8A0ADE1	classic_bike	2021-01-01 16:23:13	2021-01-01 16:41:38	31262.0	21st St & G st NW	31328.0	38.897857	-77.026975	38.898308	-77.046402	member	afternoon	Friday	18.416666666666668	['Ward 2']	POINT (-77.02697499999999 38.897857)	38.0	11	001	02-129	1100102-129	A	Precinct 129	Precinct 129	00	G5240	N	5511546.0	4586414.0	+38.8801745	-077.0328393
46712FD0C169B3BF	docked_bike	2021-01-01 05:21:14	2021-01-01 05:35:17	31126.0	New Jersey Ave & N St NW/Dunbar HS	31636.0	38.925636	-77.027112	38.907333	-77.01536	casual	early morning	Friday	14.05	['Ward 1']	POINT (-77.027112 38.925636)	136.0	11	001	02-036	1100102-036	A	Precinct 36	Precinct 36	00	G5240	N	391989.0	0.0	+38.9258212	-077.0320042
DE978212E21AD3F4	classic_bike	2021-01-01 01:39:56	2021-01-01 01:44:00	31614.0	6th & K St NE	31645.0	38.899983	-76.991383	38.90293157359119	-76.99840486049652	member	early morning	Friday	4.066666666666666		POINT (-76.991383 38.899983)	52.0	11	001	02-082	1100102-082	A	Precinct 82	Precinct 82	00	G5240	N	461624.0	0.0	+38.8997971	-076.9908332
F294AF8C9AA1F51F	electric_bike	2021-01-01 06:41:09	2021-01-01 06:46:41	31102.0	1st & Washington Hospital Center NW	31507.0	38.929552	-77.02780883333334	38.928757833333336	-77.0123825	member	early morning	Friday	5.533333333333333	['Ward 1', 'Ward 2', 'Ward 3', 'Ward 4', 'Ward 5', 'Ward 6', 'Ward 7', 'Ward 8']	POINT (-77.02780883333334 38.929552)	122.0	11	001	02-039	1100102-039	A	Precinct 39	Precinct 39	00	G5240	N	601806.0	3764.0	+38.9298526	-077.0372272
AF8AD3FF491BA197	classic_bike	2021-01-01 00:45:02	2021-01-01 00:55:05	31266.0	14th & Belmont St NW	31119.0	38.9055785	-77.027313	38.921074	-77.031887	member	early morning	Friday	10.05	['Ward 1', 'Ward 2', 'Ward 3', 'Ward 4', 'Ward 5', 'Ward 6', 'Ward 7', 'Ward 8']	POINT (-77.02731300000001 38.9055785)	33.0	11	001	02-017	1100102-017	A	Precinct 17	Precinct 17	00	G5240	N	1218970.0	0.0	+38.9042799	-077.0364385
3BAC2DC329E82243	classic_bike	2021-01-01 02:05:35	2021-01-01 02:06:31	31286.0	11th & O St NW	31286.0	38.90843	-77.02714	38.90843	-77.02714	member	early morning	Friday	0.9333333333333333	['Ward 1', 'Ward 2']	POINT (-77.02714 38.90843)	33.0	11	001	02-017	1100102-017	A	Precinct 17	Precinct 17	00	G5240	N	1218970.0	0.0	+38.9042799	-077.0364385
DA46A05139C0EA2F	classic_bike	2021-01-01 00:17:46	2021-01-01 00:21:00	31651.0	14th & Newton St NW	31649.0	38.93132185874559	-77.02824711799622	38.931991	-77.032956	member	early morning	Friday	3.2333333333333334	['Ward 1', 'Ward 2', 'Ward 3', 'Ward 4', 'Ward 5', 'Ward 6', 'Ward 7', 'Ward 8']	POINT (-77.02824711799622 38.93132185874559)	122.0	11	001	02-039	1100102-039	A	Precinct 39	Precinct 39	00	G5240	N	601806.0	3764.0	+38.9298526	-077.0372272
EE0057445413156E	classic_bike	2021-01-01 10:55:14	2021-01-01 10:59:52	31280.0	14th & L St NW	31283.0	38.913761	-77.027025	38.903658	-77.031737	member	late morning	Friday	4.633333333333334	['Ward 1']	POINT (-77.02702499999999 38.913761)	86.0	11	001	02-021	1100102-021	P	Precinct 21	Precinct 21	00	G5240	S	197461.0	0.0	+38.9131989	-077.0231037
CC3F8118E4332B53	classic_bike	2022-09-29 12:18:14	2022-09-29 12:31:23	31332.0	18th & M St NW	31221.0	38.918199	-77.027171	38.90506687455313	-77.04177886247635	casual	late morning	Thursday	13.15	['Ward 1']	POINT (-77.027171 38.918199)	128.0	11	001	02-022	1100102-022	A	Precinct 22	Precinct 22	00	G5240	N	463520.0	0.0	+38.9178986	-077.0299841
8E49CE13B4014FCC	classic_bike	2021-10-07 15:44:57	2021-10-07 15:53:11	31332.0	15th & P St NW	31201.0	38.918199	-77.027171	38.90980062655191	-77.03442692756653	member	afternoon	Thursday	8.233333333333333	['Ward 1']	POINT (-77.027171 38.918199)	128.0	11	001	02-022	1100102-022	A	Precinct 22	Precinct 22	00	G5240	N	463520.0	0.0	+38.9178986	-077.0299841
57FC13BA5AB17A5D	classic_bike	2021-01-01 08:11:01	2021-01-01 08:32:27	31511.0	4th St & Madison Dr NW	31288.0	38.928644	-76.990955	38.8904955	-77.0172465	member	late morning	Friday	21.433333333333334		POINT (-76.990955 38.928644)	49.0	11	001	02-073	1100102-073	A	Precinct 73	Precinct 73	00	G5240	N	870324.0	0.0	+38.9290897	-076.9890666
137C9E0ED6C16841	docked_bike	2021-01-01 00:47:55	2021-01-01 03:04:53	31251.0	7th & K St NW	31653.0	38.903819	-77.0284	38.902674	-77.021392	casual	early morning	Friday	136.96666666666667	['Ward 2']	POINT (-77.0284 38.903819)	33.0	11	001	02-017	1100102-017	A	Precinct 17	Precinct 17	00	G5240	N	1218970.0	0.0	+38.9042799	-077.0364385
2AB207067C0F110C	classic_bike	2021-01-01 15:20:04	2021-01-01 15:41:34	31501.0	Columbia & Ontario Rd NW	31296.0	38.933668	-76.991016	38.924088	-77.040787	member	afternoon	Friday	21.5		POINT (-76.991016 38.933668)	5.0	11	001	02-068	1100102-068	P	Precinct 68	Precinct 68	00	G5240	S	1791863.0	0.0	+38.9378005	-076.9926736
4937A70404A36D6B	classic_bike	2021-01-01 10:03:35	2021-01-01 10:09:50	31268.0	Florida Ave & R St NW	31503.0	38.916787	-77.028139	38.9126	-77.0135	casual	late morning	Friday	6.25		POINT (-77.028139 38.916787)	128.0	11	001	02-022	1100102-022	A	Precinct 22	Precinct 22	00	G5240	N	463520.0	0.0	+38.9178986	-077.0299841
DB9053DEE606A44B	classic_bike	2023-02-23 14:25:46	2023-02-23 14:50:25	31542.0	4th & College St NW	31138.0	38.943596	-76.990157	38.92123296360907	-77.01813519001007	member	afternoon	Thursday	24.65	['Ward 5']	POINT (-76.990157 38.943596)	6.0	11	001	02-067	1100102-067	A	Precinct 67	Precinct 67	00	G5240	N	1448847.0	0.0	+38.9450941	-076.9880536
94DB5720DCA4024F	classic_bike	2023-02-07 13:24:03	2023-02-07 13:35:49	31670.0	Georgia Ave & Fairmont St NW	31207.0	38.901104	-77.028061	38.92478458526696	-77.02232748270035	member	afternoon	Tuesday	11.766666666666667	['Ward 2']	POINT (-77.02806099999999 38.901104)	38.0	11	001	02-129	1100102-129	A	Precinct 129	Precinct 129	00	G5240	N	5511546.0	4586414.0	+38.8801745	-077.0328393
B30D77073BDE2274	electric_bike	2021-01-01 05:10:44	2021-01-01 05:22:59	31644.0	New Jersey Ave & N St NW/Dunbar HS	31636.0	38.88248266666667	-76.990114	38.90737833333333	-77.0153305	casual	early morning	Friday	12.25	['Ward 6']	POINT (-76.99011400000001 38.88248266666667)	72.0	11	001	02-091	1100102-091	A	Precinct 91	Precinct 91	00	G5240	N	1033189.0	149901.0	+38.8794894	-076.9863158
D0AE4A2E042A9CCA	classic_bike	2023-09-19 16:39:03	2023-09-19 16:39:04	31051.0	12th St N & N Pierce St	31051.0	38.889365	-77.077294	38.887659	-77.07592	member	afternoon	Tuesday	0.016666666666666666		POINT (-77.07729399999999 38.889365)															
FFC0F4EDB6AB14F7	classic_bike	2021-03-14 13:58:40	2021-03-14 14:14:56	32400.0	1301 McCormick Dr / Wayne K. Curry Admin Bldg	32400.0	38.908391	-76.843263	38.908391	-76.843263	casual	afternoon	Sunday	16.266666666666666		POINT (-76.84326299999999 38.908391)															
160762C443389531	classic_bike	2021-01-01 02:33:11	2021-01-01 02:40:09	31622.0	Oklahoma Ave & Benning Rd NE	31719.0	38.894832	-76.987633	38.8974996	-76.9695094	member	early morning	Friday	6.966666666666667		POINT (-76.987633 38.894832)	63.0	11	001	02-081	1100102-081	A	Precinct 81	Precinct 81	00	G5240	N	724836.0	0.0	+38.8963844	-076.9832021
17989E3A29A1987E	classic_bike	2021-01-02 04:11:03	2021-01-02 04:16:42	31607.0	8th & East Capitol St NE	31629.0	38.88291548476762	-76.98790669441223	38.889988	-76.995193	casual	early morning	Saturday	5.65	['Ward 6']	POINT (-76.98790669441223 38.88291548476762)	72.0	11	001	02-091	1100102-091	A	Precinct 91	Precinct 91	00	G5240	N	1033189.0	149901.0	+38.8794894	-076.9863158
D30621B87FE6FB33	classic_bike	2021-01-01 09:38:17	2021-01-01 09:46:25	31611.0	Oklahoma Ave & Benning Rd NE	31719.0	38.90042673988099	-76.98825001716614	38.8974996	-76.9695094	member	late morning	Friday	8.133333333333333		POINT (-76.98825001716614 38.90042673988099)	52.0	11	001	02-082	1100102-082	A	Precinct 82	Precinct 82	00	G5240	N	461624.0	0.0	+38.8997971	-076.9908332
1D5A4608A94B63C3	classic_bike	2023-04-18 13:59:20	2023-04-18 14:05:12	31311.0	15th & K St NW	31254.0	38.908735	-77.029779	38.902	-77.03353	casual	afternoon	Tuesday	5.866666666666666	['Ward 2']	POINT (-77.029779 38.908735)	33.0	11	001	02-017	1100102-017	A	Precinct 17	Precinct 17	00	G5240	N	1218970.0	0.0	+38.9042799	-077.0364385
4FC9469A21B06276	electric_bike	2021-01-01 13:22:55	2021-01-01 13:44:48	31132.0	Capitol Ave & Kendall St NE	31530.0	38.91687383333333	-77.02946433333334	38.911178	-76.985744	casual	afternoon	Friday	21.883333333333333	['Ward 1']	POINT (-77.02946433333334 38.91687383333333)	128.0	11	001	02-022	1100102-022	A	Precinct 22	Precinct 22	00	G5240	N	463520.0	0.0	+38.9178986	-077.0299841
C989D405BF668AF3	classic_bike	2021-01-05 17:16:35	2021-01-05 17:37:03	32006.0	13th St & Eastern Ave	32006.0	38.987	-77.029417	38.987	-77.029417	member	afternoon	Tuesday	20.466666666666665		POINT (-77.029417 38.987)															
AC3ADC27C8B5C277	classic_bike	2021-01-02 11:03:16	2021-01-02 11:09:31	31227.0	3rd & H St NW	31604.0	38.900283	-77.029822	38.899408	-77.015289	member	late morning	Saturday	6.25	['Ward 2']	POINT (-77.029822 38.900283)	38.0	11	001	02-129	1100102-129	A	Precinct 129	Precinct 129	00	G5240	N	5511546.0	4586414.0	+38.8801745	-077.0328393
17735EE76B4D0CA3	classic_bike	2021-01-01 00:26:03	2021-01-01 00:34:40	31119.0	11th & M St NW	31266.0	38.921074	-77.031887	38.9055785	-77.027313	member	early morning	Friday	8.616666666666667	['Ward 1']	POINT (-77.031887 38.921074)	138.0	11	001	02-023	1100102-023	A	Precinct 23	Precinct 23	00	G5240	N	328347.0	0.0	+38.9217768	-077.0320668
E77C94846690407C	electric_bike	2023-07-25 15:10:22	2023-07-25 15:23:05	31231.0	8th & V St NW	31134.0	38.8945955	-77.03163616666667	38.917716	-77.022684	casual	afternoon	Tuesday	12.716666666666667	['Ward 1', 'Ward 2', 'Ward 3', 'Ward 4', 'Ward 5', 'Ward 6', 'Ward 7', 'Ward 8']	POINT (-77.03163616666667 38.8945955)	38.0	11	001	02-129	1100102-129	A	Precinct 129	Precinct 129	00	G5240	N	5511546.0	4586414.0	+38.8801745	-077.0328393
02917973D6BA2551	classic_bike	2021-01-02 10:36:26	2021-01-02 11:08:23	31231.0	Eads St & 12th St S	31071.0	38.894514	-77.031617	38.862753	-77.05428	casual	late morning	Saturday	31.95	['Ward 1', 'Ward 2', 'Ward 3', 'Ward 4', 'Ward 5', 'Ward 6', 'Ward 7', 'Ward 8']	POINT (-77.031617 38.894514)	38.0	11	001	02-129	1100102-129	A	Precinct 129	Precinct 129	00	G5240	N	5511546.0	4586414.0	+38.8801745	-077.0328393
89B2DB9F1E6DEFEC	classic_bike	2021-01-01 14:45:46	2021-01-01 14:50:37	31663.0	8th & East Capitol St NE	31629.0	38.8840581	-76.9863852	38.889988	-76.995193	member	afternoon	Friday	4.85	['Ward 6']	POINT (-76.9863852 38.8840581)	72.0	11	001	02-091	1100102-091	A	Precinct 91	Precinct 91	00	G5240	N	1033189.0	149901.0	+38.8794894	-076.9863158
091DC949ADE34CB1	classic_bike	2021-01-01 00:57:14	2021-01-01 01:07:11	31238.0	New Jersey Ave & N St NW/Dunbar HS	31636.0	38.898409	-77.032278	38.90733256111448	-77.01536044478416	member	early morning	Friday	9.95	['Ward 2']	POINT (-77.03227800000001 38.898409)	38.0	11	001	02-129	1100102-129	A	Precinct 129	Precinct 129	00	G5240	N	5511546.0	4586414.0	+38.8801745	-077.0328393
1129543119BA380B	electric_bike	2021-01-01 06:31:08	2021-01-01 07:29:26	31123.0	15th & Euclid St  NW	31117.0	38.925367666666666	-77.03240983333333	38.92331116666666	-77.0352	casual	late morning	Friday	58.3	['Ward 1']	POINT (-77.03240983333333 38.92536766666667)	136.0	11	001	02-036	1100102-036	A	Precinct 36	Precinct 36	00	G5240	N	391989.0	0.0	+38.9258212	-077.0320042
7464896C20B848EC	classic_bike	2021-01-01 03:23:10	2021-01-01 03:34:04	31105.0	Georgia Ave & Emerson St NW	31405.0	38.9268	-77.0322	38.949662	-77.027333	casual	early morning	Friday	10.9	['Ward 1']	POINT (-77.0322 38.9268)	136.0	11	001	02-036	1100102-036	A	Precinct 36	Precinct 36	00	G5240	N	391989.0	0.0	+38.9258212	-077.0320042
E28C2D44DD35C5F1	classic_bike	2021-01-01 02:27:13	2021-01-01 02:36:02	31124.0	7th & T St NW	31109.0	38.928552	-77.032224	38.9155	-77.0222	member	early morning	Friday	8.816666666666666	['Ward 1']	POINT (-77.032224 38.928552)	122.0	11	001	02-039	1100102-039	A	Precinct 39	Precinct 39	00	G5240	N	601806.0	3764.0	+38.9298526	-077.0372272
DF7A52C64C269678	classic_bike	2021-01-01 12:08:07	2021-01-01 12:13:32	31283.0	11th & S St NW	31280.0	38.903658	-77.031737	38.913761	-77.027025	member	late morning	Friday	5.416666666666667	['Ward 2']	POINT (-77.03173700000001 38.903658)	38.0	11	001	02-129	1100102-129	A	Precinct 129	Precinct 129	00	G5240	N	5511546.0	4586414.0	+38.8801745	-077.0328393
C182AACBF244C70B	docked_bike	2021-01-01 10:57:04	2021-01-01 11:23:19	31416.0	14th & R St NW	31202.0	38.969489	-77.033509	38.913046	-77.032008	casual	late morning	Friday	26.25		POINT (-77.033509 38.969489)	135.0	11	001	02-061	1100102-061	A	Precinct 61	Precinct 61	00	G5240	N	1266742.0	31909.0	+38.9662670	-077.0379654
D4AABCA04BFC6D65	classic_bike	2021-01-01 00:42:00	2021-01-01 00:50:11	31649.0	New Hampshire Ave & T St NW	31229.0	38.931991	-77.032956	38.915544	-77.038252	member	early morning	Friday	8.183333333333334	['Ward 1']	POINT (-77.032956 38.931991)	89.0	11	001	02-041	1100102-041	A	Precinct 41	Precinct 41	00	G5240	N	342414.0	0.0	+38.9339994	-077.0336506
874D92427D41BC30	classic_bike	2021-01-01 00:21:39	2021-01-01 00:31:07	31131.0	14th & R St NW	31202.0	38.934405	-77.032687	38.913046	-77.032008	member	early morning	Friday	9.466666666666667	['Ward 1']	POINT (-77.032687 38.934405)	89.0	11	001	02-041	1100102-041	A	Precinct 41	Precinct 41	00	G5240	N	342414.0	0.0	+38.9339994	-077.0336506
2437F0F242E4A96D	electric_bike	2021-01-01 09:24:32	2021-01-01 09:39:34	31327.0	4th St & G St SW	31666.0	38.910635166666665	-77.03192866666667	38.8812375	-77.0176045	member	late morning	Friday	15.033333333333333	['Ward 2']	POINT (-77.03192866666667 38.91063516666667)	37.0	11	001	02-016	1100102-016	A	Precinct 16	Precinct 16	00	G5240	N	472969.0	0.0	+38.9114110	-077.0322866
D9BEA1F783DE05DF	classic_bike	2021-01-01 01:21:17	2021-01-01 01:29:34	31202.0	1st & O St NW	31519.0	38.913046	-77.032008	38.908643	-77.012365	casual	early morning	Friday	8.283333333333333	['Ward 2']	POINT (-77.032008 38.913046)	37.0	11	001	02-016	1100102-016	A	Precinct 16	Precinct 16	00	G5240	N	472969.0	0.0	+38.9114110	-077.0322866
41A25E9AB384AD6F	classic_bike	2021-01-01 01:46:05	2021-01-01 01:49:22	31203.0	17th St & Massachusetts Ave NW	31267.0	38.9086	-77.0323	38.908142	-77.038359	casual	early morning	Friday	3.283333333333333	['Ward 2']	POINT (-77.03230000000001 38.9086)	33.0	11	001	02-017	1100102-017	A	Precinct 17	Precinct 17	00	G5240	N	1218970.0	0.0	+38.9042799	-077.0364385
68D350DAC0E3954E	classic_bike	2021-01-02 13:14:18	2021-01-02 13:14:27	31406.0	14th & Upshur St NW	31406.0	38.942475355602845	-77.03267812728882	38.942475355602845	-77.03267812728882	member	afternoon	Saturday	0.15	['Ward 4']	POINT (-77.03267812728882 38.94247535560284)	22.0	11	001	02-048	1100102-048	A	Precinct 48	Precinct 48	00	G5240	N	1759423.0	33448.0	+38.9455975	-077.0376197
680DF9DFBF93BC3D	classic_bike	2021-01-01 07:07:34	2021-01-01 07:15:37	31101.0	New Hampshire Ave & 24th St NW	31275.0	38.9177645	-77.032096	38.901755	-77.051084	member	late morning	Friday	8.05	['Ward 1']	POINT (-77.032096 38.9177645)	128.0	11	001	02-022	1100102-022	A	Precinct 22	Precinct 22	00	G5240	N	463520.0	0.0	+38.9178986	-077.0299841
9F491F7F2C7A7AAE	classic_bike	2021-01-02 10:59:06	2021-01-02 11:11:53	31407.0	14th & Otis Pl NW	31131.0	38.956432	-77.032947	38.934405	-77.032687	casual	late morning	Saturday	12.783333333333333	['Ward 4']	POINT (-77.03294699999999 38.956432)	26.0	11	001	02-054	1100102-054	A	Precinct 54	Precinct 54	00	G5240	N	770127.0	0.0	+38.9530388	-077.0313217
1B9E665823AE5C66	docked_bike	2022-09-02 15:12:49	2022-09-02 15:32:00	31416.0	New Hampshire & Gallatin St NW	31418.0	38.969489	-77.033509	38.951596	-77.012808	casual	afternoon	Friday	19.183333333333334		POINT (-77.033509 38.969489)	135.0	11	001	02-061	1100102-061	A	Precinct 61	Precinct 61	00	G5240	N	1266742.0	31909.0	+38.9662670	-077.0379654
EFA1700D9B5FCC7A	electric_bike	2023-11-27 16:57:03	2023-11-27 17:00:45	31803.0	MLK & Marion Barry Ave SE	31802.0	38.866601333333335	-76.98508733333334	38.867373	-76.988039	casual	afternoon	Monday	3.7		POINT (-76.98508733333334 38.86660133333334)	91.0	11	001	02-114	1100102-114	A	Precinct 114	Precinct 114	00	G5240	N	1242948.0	0.0	+38.8621624	-076.9823822
597887D8080FEC94	classic_bike	2021-01-01 10:48:08	2021-01-01 10:53:01	31216.0	5th & K St NW	31600.0	38.899632	-77.031686	38.90304	-77.019027	member	late morning	Friday	4.883333333333334	['Ward 2']	POINT (-77.03168599999999 38.899632)	38.0	11	001	02-129	1100102-129	A	Precinct 129	Precinct 129	00	G5240	N	5511546.0	4586414.0	+38.8801745	-077.0328393
3CB20C6BFCB762C5	classic_bike	2023-04-28 16:43:35	2023-04-28 16:54:11	31203.0	5th & K St NW	31600.0	38.9086	-77.0323	38.90304	-77.019027	member	afternoon	Friday	10.6	['Ward 2']	POINT (-77.03230000000001 38.9086)	33.0	11	001	02-017	1100102-017	A	Precinct 17	Precinct 17	00	G5240	N	1218970.0	0.0	+38.9042799	-077.0364385
1FA4C76CAF7E3EA6	electric_bike	2021-01-01 02:44:49	2021-01-01 02:48:28	31401.0	14th & Irving St NW	31124.0	38.937482	-77.032902	38.9286885	-77.03241116666666	member	early morning	Friday	3.65	['Ward 4']	POINT (-77.03290200000001 38.937482)	21.0	11	001	02-047	1100102-047	A	Precinct 47	Precinct 47	00	G5240	N	1171676.0	17515.0	+38.9393046	-077.0388758
DCF0C22D8F211D30	electric_bike	2021-01-02 14:20:36	2021-01-02 14:26:49	31402.0	Park Rd & Holmead Pl NW	31602.0	38.94769766666667	-77.0328905	38.93068183333333	-77.03167233333333	member	afternoon	Saturday	6.216666666666667	['Ward 1', 'Ward 2', 'Ward 3', 'Ward 4', 'Ward 5', 'Ward 6', 'Ward 7', 'Ward 8']	POINT (-77.03289049999999 38.94769766666667)	22.0	11	001	02-048	1100102-048	A	Precinct 48	Precinct 48	00	G5240	N	1759423.0	33448.0	+38.9455975	-077.0376197
6CC36E88906D19CD	classic_bike	2021-01-01 12:11:13	2021-01-01 12:13:45	31630.0	19th & East Capitol St SE	31601.0	38.889908	-76.983326	38.8896	-76.9769	member	late morning	Friday	2.533333333333333	['Ward 1', 'Ward 2', 'Ward 3', 'Ward 4', 'Ward 5', 'Ward 6', 'Ward 7', 'Ward 8']	POINT (-76.98332600000001 38.889908)	88.0	11	001	02-086	1100102-086	A	Precinct 86	Precinct 86	00	G5240	N	554244.0	0.0	+38.8916233	-076.9824272
3DA3764F28EF6257	electric_bike	2021-01-01 06:14:33	2021-01-01 06:21:35	31117.0	3000 Connecticut Ave NW / National Zoo	31307.0	38.92338383333333	-77.03506616666667	38.930285	-77.055597	member	early morning	Friday	7.033333333333333	['Ward 1']	POINT (-77.03506616666667 38.92338383333333)	138.0	11	001	02-023	1100102-023	A	Precinct 23	Precinct 23	00	G5240	N	328347.0	0.0	+38.9217768	-077.0320668
69B66A497FE0858F	classic_bike	2021-08-09 15:13:12	2021-08-09 15:35:26	31117.0	1st & K St NE	31662.0	38.92333	-77.0352	38.902386	-77.005649	member	afternoon	Monday	22.233333333333334	['Ward 1']	POINT (-77.0352 38.92333)	138.0	11	001	02-023	1100102-023	A	Precinct 23	Precinct 23	00	G5240	N	328347.0	0.0	+38.9217768	-077.0320668
CB36F43FA77E4A35	docked_bike	2021-01-01 00:21:19	2021-01-01 00:33:31	31632.0	1st & M St SE	31650.0	38.897195	-76.983575	38.876893	-77.006072	casual	early morning	Friday	12.2	['Ward 1', 'Ward 2', 'Ward 3', 'Ward 4', 'Ward 5', 'Ward 6', 'Ward 7', 'Ward 8']	POINT (-76.983575 38.897195)	63.0	11	001	02-081	1100102-081	A	Precinct 81	Precinct 81	00	G5240	N	724836.0	0.0	+38.8963844	-076.9832021
1677D14B2E856898	docked_bike	2021-03-14 14:19:18	2021-03-14 14:44:52	31103.0	C & O Canal & Wisconsin Ave NW	31225.0	38.926124	-77.035421	38.90375	-77.06269	casual	afternoon	Sunday	25.566666666666666	['Ward 1']	POINT (-77.035421 38.926124)	136.0	11	001	02-036	1100102-036	A	Precinct 36	Precinct 36	00	G5240	N	391989.0	0.0	+38.9258212	-077.0320042
EECF8CCEC686800B	classic_bike	2021-01-02 08:51:42	2021-01-02 09:04:57	31254.0	15th & K St NW	31254.0	38.902	-77.03353	38.902	-77.03353	member	late morning	Saturday	13.25	['Ward 1', 'Ward 2', 'Ward 3', 'Ward 4', 'Ward 5', 'Ward 6', 'Ward 7', 'Ward 8']	POINT (-77.03353 38.902)	38.0	11	001	02-129	1100102-129	A	Precinct 129	Precinct 129	00	G5240	N	5511546.0	4586414.0	+38.8801745	-077.0328393
495A625DBDD0C526	classic_bike	2021-01-01 16:22:36	2021-01-01 16:46:59	31276.0	1st & Rhode Island Ave NW	31506.0	38.903649	-77.034918	38.915417	-77.012289	member	afternoon	Friday	24.383333333333333	['Ward 1', 'Ward 2', 'Ward 3', 'Ward 4', 'Ward 5', 'Ward 6', 'Ward 7', 'Ward 8']	POINT (-77.034918 38.903649)	33.0	11	001	02-017	1100102-017	A	Precinct 17	Precinct 17	00	G5240	N	1218970.0	0.0	+38.9042799	-077.0364385
37E3D92A1B59F353	classic_bike	2021-01-01 03:48:18	2021-01-01 03:52:01	31298.0	20th & L St NW	31250.0	38.905424	-77.034674	38.903584	-77.044789	member	early morning	Friday	3.716666666666667	['Ward 1', 'Ward 2', 'Ward 3', 'Ward 4', 'Ward 5', 'Ward 6', 'Ward 7', 'Ward 8']	POINT (-77.034674 38.905424)	33.0	11	001	02-017	1100102-017	A	Precinct 17	Precinct 17	00	G5240	N	1218970.0	0.0	+38.9042799	-077.0364385
E99BA98015890A80	electric_bike	2021-01-01 13:48:29	2021-01-01 13:55:48	31201.0	8th & O St NW	31281.0	38.909892	-77.034337	38.90869166666667	-77.02276716666667	member	afternoon	Friday	7.316666666666666	['Ward 2']	POINT (-77.03433699999999 38.909892)	37.0	11	001	02-016	1100102-016	A	Precinct 16	Precinct 16	00	G5240	N	472969.0	0.0	+38.9114110	-077.0322866
B7BCE03432E925B1	classic_bike	2021-01-01 05:25:57	2021-01-01 05:34:17	31125.0	New Hampshire Ave & 24th St NW	31275.0	38.9190185	-77.034449	38.901755	-77.051084	member	early morning	Friday	8.333333333333334		POINT (-77.034449 38.9190185)	128.0	11	001	02-022	1100102-022	A	Precinct 22	Precinct 22	00	G5240	N	463520.0	0.0	+38.9178986	-077.0299841
4C4F9212C52922A7	classic_bike	2021-01-02 10:43:45	2021-01-02 11:28:42	31321.0	4th St & Madison Dr NW	31288.0	38.892244	-77.033234	38.8904955	-77.0172465	casual	late morning	Saturday	44.95	['Ward 1', 'Ward 2', 'Ward 3', 'Ward 4', 'Ward 5', 'Ward 6', 'Ward 7', 'Ward 8']	POINT (-77.03323399999999 38.892244)	38.0	11	001	02-129	1100102-129	A	Precinct 129	Precinct 129	00	G5240	N	5511546.0	4586414.0	+38.8801745	-077.0328393
50030545DA58E66A	classic_bike	2021-01-01 06:31:33	2021-01-01 06:34:52	31626.0	Lincoln Park / 13th & East Capitol St NE 	31619.0	38.88732	-76.983569	38.890461	-76.988355	member	early morning	Friday	3.316666666666667	['Ward 6']	POINT (-76.983569 38.88732)	73.0	11	001	02-087	1100102-087	A	Precinct 87	Precinct 87	00	G5240	N	760177.0	80614.0	+38.8834744	-076.9798898
B2AE154E52BA6DBA	classic_bike	2021-01-01 01:23:43	2021-01-01 01:36:14	31031.0	M St & Pennsylvania Ave NW	31246.0	38.89054	-77.08095	38.905126	-77.056887	casual	early morning	Friday	12.516666666666667		POINT (-77.08095 38.89054)															
76927C5709D9F51D	classic_bike	2023-08-17 12:19:31	2023-08-17 12:38:43	31222.0	Independence Ave & L'Enfant Plaza SW/DOE	31633.0	38.89903234416315	-77.03335404396057	38.887312	-77.025762	casual	late morning	Thursday	19.2	['Ward 2']	POINT (-77.03335404396057 38.89903234416315)	38.0	11	001	02-129	1100102-129	A	Precinct 129	Precinct 129	00	G5240	N	5511546.0	4586414.0	+38.8801745	-077.0328393
4BB122469A7AC0AE	classic_bike	2021-01-01 12:57:22	2021-01-01 15:18:33	31129.0	11th & M St NW	31266.0	38.89646474748647	-77.0333808660507	38.9055785	-77.027313	casual	afternoon	Friday	141.18333333333334	['Ward 1', 'Ward 2', 'Ward 3', 'Ward 4', 'Ward 5', 'Ward 6', 'Ward 7', 'Ward 8']	POINT (-77.03338086605071 38.89646474748647)	38.0	11	001	02-129	1100102-129	A	Precinct 129	Precinct 129	00	G5240	N	5511546.0	4586414.0	+38.8801745	-077.0328393
E532770EDEFA09F7	classic_bike	2023-01-13 01:28:05	2023-01-13 01:53:32	31829.0	16th & Bangor St SE	31829.0	38.86044	-76.983585	38.86044	-76.983585	casual	early morning	Friday	25.45		POINT (-76.98358500000001 38.86044)	91.0	11	001	02-114	1100102-114	A	Precinct 114	Precinct 114	00	G5240	N	1242948.0	0.0	+38.8621624	-076.9823822
1251DE1B55079B6F	classic_bike	2021-01-01 06:52:40	2021-01-01 06:55:51	31103.0	New Hampshire Ave & T St NW	31229.0	38.926088	-77.036536	38.915544	-77.038252	member	early morning	Friday	3.183333333333333	['Ward 1', 'Ward 2', 'Ward 3', 'Ward 4', 'Ward 5', 'Ward 6', 'Ward 7', 'Ward 8']	POINT (-77.036536 38.926088)	62.0	11	001	02-035	1100102-035	A	Precinct 35	Precinct 35	00	G5240	N	473809.0	11205.0	+38.9249705	-077.0439028
68795F8F786E20F2	classic_bike	2021-01-01 10:02:01	2021-01-01 10:09:01	31122.0	15th & Euclid St  NW	31117.0	38.928893	-77.03625	38.92333	-77.0352	member	late morning	Friday	7.0	['Ward 1']	POINT (-77.03625 38.928893)	122.0	11	001	02-039	1100102-039	A	Precinct 39	Precinct 39	00	G5240	N	601806.0	3764.0	+38.9298526	-077.0372272
ADE1EA45F1798F1E	classic_bike	2021-01-04 10:34:13	2021-01-04 10:43:46	31812.0	Anacostia Metro	31801.0	38.870695	-76.982359	38.862669	-76.994637	casual	late morning	Monday	9.55		POINT (-76.982359 38.870695)	87.0	11	001	02-140	1100102-140	A	Precinct 140	Precinct 140	00	G5240	N	716473.0	138800.0	+38.8729784	-076.9793634
9AC80F2121E3B04D	classic_bike	2021-01-01 02:01:17	2021-01-01 02:16:25	31282.0	Lynn St & 19th St North	31014.0	38.912652	-77.036278	38.897315	-77.070993	member	early morning	Friday	15.133333333333333		POINT (-77.036278 38.912652)	37.0	11	001	02-016	1100102-016	A	Precinct 16	Precinct 16	00	G5240	N	472969.0	0.0	+38.9114110	-077.0322866
E74069873161EE33	electric_bike	2021-01-01 00:14:32	2021-01-01 00:28:45	31214.0	14th & Belmont St NW	31119.0	38.9121375	-77.03856816666666	38.9208705	-77.03169116666666	member	early morning	Friday	14.216666666666667		POINT (-77.03856816666666 38.9121375)	36.0	11	001	02-015	1100102-015	A	Precinct 15	Precinct 15	00	G5240	N	341736.0	0.0	+38.9106466	-077.0390795
11FB071D188AA6B9	docked_bike	2021-01-02 07:59:43	2021-01-02 09:54:01	31277.0	18th St & Pennsylvania Ave NW	31242.0	38.898283	-77.039732	38.89968	-77.041539	casual	late morning	Saturday	114.3	['Ward 2']	POINT (-77.039732 38.898283)	34.0	11	001	02-002	1100102-002	A	Precinct 2	Precinct 2	00	G5240	N	1657481.0	27679.0	+38.8944563	-077.0426047
538A0A9412E096EB	classic_bike	2021-01-01 20:39:21	2021-01-01 20:43:45	31213.0	Thomas Circle	31241.0	38.90276	-77.03863	38.9059	-77.0325	member	night	Friday	4.4	['Ward 2']	POINT (-77.03863 38.90276)	33.0	11	001	02-017	1100102-017	A	Precinct 17	Precinct 17	00	G5240	N	1218970.0	0.0	+38.9042799	-077.0364385
41E832596D40DEFB	classic_bike	2021-01-02 10:05:02	2021-01-02 10:27:57	31233.0	3rd & G St SE	31625.0	38.902061	-77.038322	38.881185	-77.001828	member	late morning	Saturday	22.916666666666668	['Ward 2']	POINT (-77.03832199999999 38.902061)	33.0	11	001	02-017	1100102-017	A	Precinct 17	Precinct 17	00	G5240	N	1218970.0	0.0	+38.9042799	-077.0364385
0DFAEC086E5CDB60	electric_bike	2021-10-05 13:28:07	2021-10-05 13:30:17	31330.0	Massachusetts Ave & Dupont Circle NW	31200.0	38.90981133333333	-77.038462	38.91007883333333	-77.04446416666667	member	afternoon	Tuesday	2.1666666666666665		POINT (-77.038462 38.90981133333333)	36.0	11	001	02-015	1100102-015	A	Precinct 15	Precinct 15	00	G5240	N	341736.0	0.0	+38.9106466	-077.0390795
53B0FF772733C05E	docked_bike	2021-01-02 11:24:37	2021-01-02 12:02:59	31420.0	New Hampshire & Kirklynn Ave	32061.0	38.942146	-77.038684	38.988101	-76.988422	casual	late morning	Saturday	38.36666666666667	['Ward 4']	POINT (-77.038684 38.942146)	22.0	11	001	02-048	1100102-048	A	Precinct 48	Precinct 48	00	G5240	N	1759423.0	33448.0	+38.9455975	-077.0376197
0A97D94D0CC27CD5	docked_bike	2021-01-01 13:43:59	2021-01-01 14:44:22	31290.0	Ohio Dr & West Basin Dr SW / MLK & FDR Memorials	31240.0	38.888097	-77.038325	38.88412	-77.04657	casual	afternoon	Friday	60.38333333333333	['Ward 1', 'Ward 2', 'Ward 3', 'Ward 4', 'Ward 5', 'Ward 6', 'Ward 7', 'Ward 8']	POINT (-77.038325 38.888097)	38.0	11	001	02-129	1100102-129	A	Precinct 129	Precinct 129	00	G5240	N	5511546.0	4586414.0	+38.8801745	-077.0328393
994CA4D0DBC7989F	classic_bike	2021-01-02 06:20:59	2021-01-02 06:37:29	31267.0	3rd & M St NE	31627.0	38.908142	-77.038359	38.90546971494327	-77.0021304488182	member	early morning	Saturday	16.5		POINT (-77.038359 38.908142)	36.0	11	001	02-015	1100102-015	A	Precinct 15	Precinct 15	00	G5240	N	341736.0	0.0	+38.9106466	-077.0390795
82FD10CF280AF473	classic_bike	2023-03-01 16:13:34	2023-03-01 16:23:22	33200.0	10th & E St NW	31256.0	38.896604	-77.039778	38.895914	-77.026064	member	afternoon	Wednesday	9.8		POINT (-77.039778 38.896604)	34.0	11	001	02-002	1100102-002	A	Precinct 2	Precinct 2	00	G5240	N	1657481.0	27679.0	+38.8944563	-077.0426047
9E2A3A1540AE2327	classic_bike	2023-02-09 12:47:24	2023-02-09 12:51:14	31210.0	17th & Corcoran St NW	31214.0	38.906767059408295	-77.03862726688385	38.9121	-77.0387	member	late morning	Thursday	3.8333333333333335		POINT (-77.03862726688385 38.9067670594083)	33.0	11	001	02-017	1100102-017	A	Precinct 17	Precinct 17	00	G5240	N	1218970.0	0.0	+38.9042799	-077.0364385
E9ABCB297BFB9BA5	classic_bike	2021-01-02 11:44:00	2021-01-02 14:25:24	31284.0	18th & C St NW	31284.0	38.893511	-77.041544	38.893511	-77.041544	casual	afternoon	Saturday	161.4	['Ward 1', 'Ward 2', 'Ward 3', 'Ward 4', 'Ward 5', 'Ward 6', 'Ward 7', 'Ward 8']	POINT (-77.041544 38.893511)	34.0	11	001	02-002	1100102-002	A	Precinct 2	Precinct 2	00	G5240	N	1657481.0	27679.0	+38.8944563	-077.0426047
584AC9D657C80BF8	classic_bike	2021-01-02 09:59:11	2021-01-02 10:03:32	31224.0	23rd & M St NW	31128.0	38.90374145091938	-77.04245209693909	38.905303	-77.050264	member	late morning	Saturday	4.35	['Ward 2']	POINT (-77.04245209693909 38.90374145091938)	33.0	11	001	02-017	1100102-017	A	Precinct 17	Precinct 17	00	G5240	N	1218970.0	0.0	+38.9042799	-077.0364385
C3A99A771B69594E	classic_bike	2021-01-01 14:45:56	2021-01-01 14:52:59	31221.0	19th & E Street NW	31206.0	38.90506687455313	-77.04177886247635	38.8952	-77.0436	casual	afternoon	Friday	7.05	['Ward 2']	POINT (-77.04177886247635 38.90506687455313)	33.0	11	001	02-017	1100102-017	A	Precinct 17	Precinct 17	00	G5240	N	1218970.0	0.0	+38.9042799	-077.0364385
BDE01E5171EF2A1F	electric_bike	2021-01-09 12:10:59	2021-01-09 12:29:23	31521.0	6th & H St NE	31615.0	38.93296033333333	-76.97950033333333	38.9002435	-76.99806633333333	casual	late morning	Saturday	18.4	['Ward 5']	POINT (-76.97950033333333 38.93296033333333)	50.0	11	001	02-070	1100102-070	A	Precinct 70	Precinct 70	00	G5240	N	658076.0	0.0	+38.9308429	-076.9793329
3128DBE069946CFF	classic_bike	2021-01-01 12:06:13	2021-01-01 12:08:38	31324.0	New Hampshire Ave & T St NW	31229.0	38.911268	-77.041829	38.915544	-77.038252	member	late morning	Friday	2.4166666666666665		POINT (-77.04182900000001 38.911268)	32.0	11	001	02-014	1100102-014	A	Precinct 14	Precinct 14	00	G5240	N	561627.0	1111.0	+38.9107636	-077.0456294
96C93E633D5B669E	classic_bike	2021-01-01 07:35:26	2021-01-01 07:38:46	31278.0	New Hampshire Ave & Ward Pl NW	31212.0	38.912648	-77.041834	38.90571079190728	-77.0473176240921	casual	late morning	Friday	3.3333333333333335		POINT (-77.04183399999999 38.912648)	32.0	11	001	02-014	1100102-014	A	Precinct 14	Precinct 14	00	G5240	N	561627.0	1111.0	+38.9107636	-077.0456294
7D121800454F92C8	docked_bike	2021-01-02 07:39:38	2021-01-02 09:54:25	31242.0	18th St & Pennsylvania Ave NW	31242.0	38.89968	-77.041539	38.89968	-77.041539	casual	late morning	Saturday	134.78333333333333	['Ward 2']	POINT (-77.041539 38.89968)	33.0	11	001	02-017	1100102-017	A	Precinct 17	Precinct 17	00	G5240	N	1218970.0	0.0	+38.9042799	-077.0364385
D0BF15B946A6703D	electric_bike	2021-01-01 08:22:52	2021-01-01 08:28:19	31510.0	Rhode Island Ave Metro	31516.0	38.926957	-76.97895033333333	38.92066833333333	-76.99577433333333	member	late morning	Friday	5.45	"[""Prince George's County""]"	POINT (-76.97895033333333 38.926957)	8.0	11	001	02-072	1100102-072	P	Precinct 72	Precinct 72	00	G5240	S	2872449.0	0.0	+38.9195912	-076.9828520
D3D1C412BE6E45FB	classic_bike	2021-01-01 14:14:33	2021-01-01 14:25:49	31001.0	Gravelly Point	31064.0	38.85725	-77.05332	38.865029	-77.039511	member	afternoon	Friday	11.266666666666667	['Arlington County']	POINT (-77.05332 38.85725)															
A3D93F4099EA965D	classic_bike	2021-01-01 02:54:58	2021-01-01 03:03:55	31114.0	11th & Girard St NW	31126.0	38.918809	-77.041571	38.925636	-77.027112	casual	early morning	Friday	8.95	['Ward 1']	POINT (-77.041571 38.918809)	137.0	11	001	02-024	1100102-024	A	Precinct 24	Precinct 24	00	G5240	N	325329.0	0.0	+38.9201750	-077.0392377
ADE16F575C6D3D1B	classic_bike	2021-01-02 14:43:09	2021-01-02 15:32:32	31206.0	19th & E Street NW	31206.0	38.8952	-77.0436	38.8952	-77.0436	casual	afternoon	Saturday	49.38333333333333		POINT (-77.0436 38.8952)	34.0	11	001	02-002	1100102-002	A	Precinct 2	Precinct 2	00	G5240	N	1657481.0	27679.0	+38.8944563	-077.0426047
30D44E456CD49AE9	classic_bike	2021-01-01 12:02:59	2021-01-01 12:05:47	31601.0	15th & East Capitol St NE	31630.0	38.8896	-76.9769	38.889908	-76.983326	member	late morning	Friday	2.8	['Ward 1', 'Ward 2', 'Ward 3', 'Ward 4', 'Ward 5', 'Ward 6', 'Ward 7', 'Ward 8']	POINT (-76.9769 38.8896)	93.0	11	001	02-080	1100102-080	A	Precinct 80	Precinct 80	00	G5240	N	1491294.0	397127.0	+38.8907605	-076.9721715
9EC378816457E03B	classic_bike	2021-01-02 13:09:33	2021-01-02 13:45:17	31279.0	15th St & Constitution Ave NW	31321.0	38.898412	-77.043182	38.892244	-77.033234	casual	afternoon	Saturday	35.733333333333334	['Ward 2']	POINT (-77.043182 38.898412)	34.0	11	001	02-002	1100102-002	A	Precinct 2	Precinct 2	00	G5240	N	1657481.0	27679.0	+38.8944563	-077.0426047
594F9E9C60BF9B6F	docked_bike	2023-02-27 18:19:37	2023-02-27 18:50:50	31253.0	21st St & Pennsylvania Ave NW	31252.0	38.901633	-77.043386	38.901539	-77.046564	casual	afternoon	Monday	31.216666666666665	['Ward 2']	POINT (-77.043386 38.901633)	33.0	11	001	02-017	1100102-017	A	Precinct 17	Precinct 17	00	G5240	N	1218970.0	0.0	+38.9042799	-077.0364385
273324ED8E5CFE7E	classic_bike	2021-01-02 14:51:32	2021-01-02 14:58:09	31253.0	22nd & P ST NW	31285.0	38.902204	-77.04337	38.909394	-77.048728	member	afternoon	Saturday	6.616666666666666	['Ward 2']	POINT (-77.04337 38.902204)	33.0	11	001	02-017	1100102-017	A	Precinct 17	Precinct 17	00	G5240	N	1218970.0	0.0	+38.9042799	-077.0364385
1938912BB5834256	classic_bike	2021-01-04 05:52:58	2021-01-04 06:02:21	31815.0	Alabama & MLK Ave SE	31800.0	38.84623	-76.97703	38.84322988730829	-76.99937582015991	casual	early morning	Monday	9.383333333333333	['Ward 1', 'Ward 2', 'Ward 3', 'Ward 4', 'Ward 5', 'Ward 6', 'Ward 7', 'Ward 8']	POINT (-76.97703 38.84623)	113.0	11	001	02-116	1100102-116	A	Precinct 116	Precinct 116	00	G5240	N	735777.0	5767.0	+38.8463035	-076.9754135
1E71C2AB4ADB2D30	docked_bike	2021-01-02 10:12:37	2021-01-02 10:15:35	31235.0	19th St & Constitution Ave NW	31235.0	38.8923	-77.0436	38.8923	-77.0436	casual	late morning	Saturday	2.966666666666667	['Ward 1', 'Ward 2', 'Ward 3', 'Ward 4', 'Ward 5', 'Ward 6', 'Ward 7', 'Ward 8']	POINT (-77.0436 38.8923)	34.0	11	001	02-002	1100102-002	A	Precinct 2	Precinct 2	00	G5240	N	1657481.0	27679.0	+38.8944563	-077.0426047
82B42D5F8C03BEE5	classic_bike	2021-01-02 12:31:50	2021-01-02 12:57:23	31100.0	15th St & Constitution Ave NW	31321.0	38.9003	-77.0429	38.892244	-77.033234	casual	late morning	Saturday	25.55	['Ward 2']	POINT (-77.0429 38.9003)	33.0	11	001	02-017	1100102-017	A	Precinct 17	Precinct 17	00	G5240	N	1218970.0	0.0	+38.9042799	-077.0364385
E77EB9B07E829D97	docked_bike	2022-11-15 19:46:20	2022-11-15 20:04:29	31014.0	18th & New Hampshire Ave NW	31324.0	38.897218	-77.072143	38.911268	-77.041829	casual	night	Tuesday	18.15	['Arlington County']	POINT (-77.072143 38.897218)															
641C3C5C221290DF	docked_bike	2021-01-02 12:10:14	2021-01-02 12:21:04	31643.0	3rd & D St SE	31605.0	38.884916	-77.005965	38.8851	-77.0023	casual	late morning	Saturday	10.833333333333334	['Ward 6']	POINT (-77.005965 38.884916)	44.0	11	001	02-130	1100102-130	A	Precinct 130	Precinct 130	00	G5240	N	1016488.0	294.0	+38.8894008	-077.0067202
EDE7053B0B41324F	classic_bike	2021-01-01 06:00:05	2021-01-01 06:05:57	31638.0	7th & F St NW / National Portrait Gallery	31232.0	38.900358	-77.012108	38.89728304853854	-77.02219069004059	member	early morning	Friday	5.866666666666666		POINT (-77.012108 38.900358)	41.0	11	001	02-001	1100102-001	A	Precinct 1	Precinct 1	00	G5240	N	914103.0	0.0	+38.9008891	-077.0130353
7882C4439A7B7EFE	classic_bike	2022-05-24 17:03:30	2022-05-24 17:31:52	31628.0	New Hampshire Ave & T St NW	31229.0	38.878854378063295	-77.00572729110718	38.915544	-77.038252	casual	afternoon	Tuesday	28.366666666666667		POINT (-77.00572729110718 38.87885437806329)	3.0	11	001	02-131	1100102-131	A	Precinct 131	Precinct 131	00	G5240	N	1349612.0	312419.0	+38.8756862	-077.0013043
D72DA9C9A3955555	electric_bike	2021-01-01 16:00:24	2021-01-01 16:23:34	31662.0	15th & P St NW	31201.0	38.902504666666665	-77.00572333333334	38.90967033333333	-77.03409083333334	casual	afternoon	Friday	23.166666666666668	['Ward 6']	POINT (-77.00572333333334 38.90250466666667)	43.0	11	001	02-083	1100102-083	A	Precinct 83	Precinct 83	00	G5240	N	1319433.0	0.0	+38.9025528	-077.0025314
320E280EBA94D82A	classic_bike	2021-01-01 10:56:49	2021-01-01 11:05:29	31628.0	4th & E St SW	31244.0	38.878854378063295	-77.00572729110718	38.88412	-77.017445	member	late morning	Friday	8.666666666666666		POINT (-77.00572729110718 38.87885437806329)	3.0	11	001	02-131	1100102-131	A	Precinct 131	Precinct 131	00	G5240	N	1349612.0	312419.0	+38.8756862	-077.0013043
1420A6AEAF5F6FF8	classic_bike	2023-01-12 18:32:02	2023-01-12 18:43:45	31677.0	Montello Ave & Holbrook Terr NE	31524.0	38.903819	-77.011987	38.907444	-76.986813	casual	afternoon	Thursday	11.716666666666667		POINT (-77.011987 38.903819)	41.0	11	001	02-001	1100102-001	A	Precinct 1	Precinct 1	00	G5240	N	914103.0	0.0	+38.9008891	-077.0130353
5B85355F6951C1E8	classic_bike	2021-01-01 00:52:46	2021-01-01 01:03:54	31603.0	11th & O St NW	31286.0	38.905697	-77.005483	38.90843	-77.02714	member	early morning	Friday	11.133333333333333	['Ward 6']	POINT (-77.005483 38.905697)	43.0	11	001	02-083	1100102-083	A	Precinct 83	Precinct 83	00	G5240	N	1319433.0	0.0	+38.9025528	-077.0025314
311E0B699A8DA946	classic_bike	2021-01-02 09:35:46	2021-01-02 09:54:52	31650.0	Columbus Circle / Union Station	31623.0	38.876893	-77.006072	38.89696	-77.00493	casual	late morning	Saturday	19.1		POINT (-77.006072 38.876893)	3.0	11	001	02-131	1100102-131	A	Precinct 131	Precinct 131	00	G5240	N	1349612.0	312419.0	+38.8756862	-077.0013043
CCE5197E784152BE	classic_bike	2021-01-01 08:27:30	2021-01-01 08:45:39	31209.0	2nd & G St NE	31639.0	38.8743	-77.0057	38.89967	-77.003666	casual	late morning	Friday	18.15	['Ward 6']	POINT (-77.0057 38.8743)	3.0	11	001	02-131	1100102-131	A	Precinct 131	Precinct 131	00	G5240	N	1349612.0	312419.0	+38.8756862	-077.0013043
350955E3DC1F6E60	classic_bike	2021-08-09 16:53:00	2021-08-09 17:00:28	31209.0	Maine Ave & 9th St SW	31646.0	38.8743	-77.0057	38.88044	-77.025236	casual	afternoon	Monday	7.466666666666667	['Ward 6']	POINT (-77.0057 38.8743)	3.0	11	001	02-131	1100102-131	A	Precinct 131	Precinct 131	00	G5240	N	1349612.0	312419.0	+38.8756862	-077.0013043
9717069186978AB5	classic_bike	2021-01-01 05:40:17	2021-01-01 05:44:40	31519.0	8th & O St NW	31281.0	38.908643	-77.012365	38.90864	-77.02277	casual	early morning	Friday	4.383333333333334	['Ward 5']	POINT (-77.012365 38.908643)	142.0	11	001	02-019	1100102-019	A	Precinct 19	Precinct 19	00	G5240	N	646265.0	0.0	+38.9113733	-077.0126622
3BC505810210D834	classic_bike	2022-09-01 18:00:12	2022-09-01 18:06:56	31676.0	M St & New Jersey Ave SE	31208.0	38.87082393953792	-77.01191514730453	38.8763	-77.0037	member	afternoon	Thursday	6.733333333333333		POINT (-77.01191514730453 38.87082393953792)	2.0	11	001	02-127	1100102-127	A	Precinct 127	Precinct 127	00	G5240	N	1335150.0	610671.0	+38.8692390	-077.0150461
EBFB3923B9F73591	classic_bike	2021-01-01 00:48:05	2021-01-01 00:57:50	31506.0	11th & Girard St NW	31126.0	38.915417	-77.012289	38.925636	-77.027112	member	early morning	Friday	9.75	['Ward 5']	POINT (-77.012289 38.915417)	142.0	11	001	02-019	1100102-019	A	Precinct 19	Precinct 19	00	G5240	N	646265.0	0.0	+38.9113733	-077.0126622
A35B083AE5F2C1E1	classic_bike	2021-01-02 17:38:55	2021-01-02 17:38:57	31817.0	1st & S Capitol St SE / Oxon Run Trail	31817.0	38.824481	-77.005497	38.824481	-77.005497	casual	afternoon	Saturday	0.03333333333333333		POINT (-77.00549700000001 38.824481)	4.0	11	001	02-126	1100102-126	A	Precinct 126	Precinct 126	00	G5240	N	3746762.0	4082729.0	+38.8132364	-077.0238475
7FBC4D4312D328ED	electric_bike	2021-01-01 07:41:07	2021-01-01 08:02:45	31507.0	Grant Circle	31421.0	38.928754833333336	-77.01240816666666	38.9420795	-77.01819683333333	member	late morning	Friday	21.633333333333333	['Ward 1', 'Ward 2', 'Ward 3', 'Ward 4', 'Ward 5', 'Ward 6', 'Ward 7', 'Ward 8']	POINT (-77.01240816666666 38.92875483333334)	79.0	11	001	02-044	1100102-044	P	Precinct 44	Precinct 44	00	G5240	S	3165159.0	5298.0	+38.9393195	-077.0113150
9D22D4658A78BF92	electric_bike	2021-01-02 12:22:11	2021-01-02 12:44:17	31668.0	11th & O St NW	31286.0	38.87182283333333	-77.00606316666666	38.908349	-77.02716716666667	member	late morning	Saturday	22.1	['Ward 6']	POINT (-77.00606316666666 38.87182283333333)	3.0	11	001	02-131	1100102-131	A	Precinct 131	Precinct 131	00	G5240	N	1349612.0	312419.0	+38.8756862	-077.0013043
2E2832D0A7594B0D	classic_bike	2021-01-12 19:37:17	2021-01-12 19:46:06	31133.0	14th & Irving St NW	31124.0	38.918036	-77.045487	38.928552	-77.032224	member	night	Tuesday	8.816666666666666	['Ward 1']	POINT (-77.04548699999999 38.918036)	132.0	11	001	02-025	1100102-025	A	Precinct 25	Precinct 25	00	G5240	N	465792.0	2414.0	+38.9199665	-077.0459286
93EE91BCE1578CCA	classic_bike	2021-01-01 15:41:22	2021-01-01 15:49:38	31204.0	17th & K St NW / Farragut Square	31233.0	38.8963	-77.045	38.902061	-77.038322	casual	afternoon	Friday	8.266666666666667		POINT (-77.045 38.8963)	34.0	11	001	02-002	1100102-002	A	Precinct 2	Precinct 2	00	G5240	N	1657481.0	27679.0	+38.8944563	-077.0426047
1FD5E3DB36C32396	classic_bike	2021-01-02 11:24:00	2021-01-02 11:40:20	31250.0	17th St & Massachusetts Ave NW	31267.0	38.903584	-77.044789	38.908142	-77.038359	casual	late morning	Saturday	16.333333333333332	['Ward 2']	POINT (-77.04478899999999 38.903584)	33.0	11	001	02-017	1100102-017	A	Precinct 17	Precinct 17	00	G5240	N	1218970.0	0.0	+38.9042799	-077.0364385
0E0ACC3F0DB4C284	classic_bike	2021-01-01 10:26:39	2021-01-01 10:38:49	31234.0	4th St & K St NW	31642.0	38.908905	-77.04478	38.90240556584194	-77.01600551605225	casual	late morning	Friday	12.166666666666666		POINT (-77.04478 38.908905)	32.0	11	001	02-014	1100102-014	A	Precinct 14	Precinct 14	00	G5240	N	561627.0	1111.0	+38.9107636	-077.0456294
C43D5B17D897A7B5	classic_bike	2021-01-01 09:13:22	2021-01-01 09:20:39	31110.0	Thomas Circle	31241.0	38.9154	-77.0446	38.9059	-77.0325	member	late morning	Friday	7.283333333333333	['Ward 1', 'Ward 2', 'Ward 3', 'Ward 4', 'Ward 5', 'Ward 6', 'Ward 7', 'Ward 8']	POINT (-77.0446 38.9154)	132.0	11	001	02-025	1100102-025	A	Precinct 25	Precinct 25	00	G5240	N	465792.0	2414.0	+38.9199665	-077.0459286
72D05923C29D1946	classic_bike	2021-01-02 11:49:08	2021-01-02 12:00:00	31259.0	Lincoln Memorial	31258.0	38.894722	-77.045128	38.888255	-77.0494365	casual	late morning	Saturday	10.866666666666667		POINT (-77.04512800000001 38.894722)	34.0	11	001	02-002	1100102-002	A	Precinct 2	Precinct 2	00	G5240	N	1657481.0	27679.0	+38.8944563	-077.0426047
96C9DB01B2A128F0	docked_bike	2023-07-16 22:12:07	2023-07-16 23:31:23	31220.0	17th St & New York Ave NW	33200.0	38.896114	-77.046615	38.896604	-77.039778	casual	night	Sunday	79.26666666666667		POINT (-77.046615 38.896114)	34.0	11	001	02-002	1100102-002	A	Precinct 2	Precinct 2	00	G5240	N	1657481.0	27679.0	+38.8944563	-077.0426047
E62BB2AB1C9946A6	classic_bike	2021-01-02 06:23:45	2021-01-02 06:35:05	31205.0	4th St & K St NW	31642.0	38.90071062547463	-77.04644858837128	38.90240556584194	-77.01600551605225	member	early morning	Saturday	11.333333333333334		POINT (-77.04644858837128 38.90071062547463)	34.0	11	001	02-002	1100102-002	A	Precinct 2	Precinct 2	00	G5240	N	1657481.0	27679.0	+38.8944563	-077.0426047
C643B333B7544FD5	classic_bike	2023-07-18 13:50:51	2023-07-18 14:01:56	31220.0	Maine Ave & 9th St SW	31646.0	38.8961140441491	-77.04661488533019	38.88044	-77.025236	member	afternoon	Tuesday	11.083333333333334		POINT (-77.04661488533019 38.8961140441491)	34.0	11	001	02-002	1100102-002	A	Precinct 2	Precinct 2	00	G5240	N	1657481.0	27679.0	+38.8944563	-077.0426047
A991CA0A653EF432	classic_bike	2021-01-01 09:38:10	2021-01-01 09:49:45	31261.0	8th & H St NW	31228.0	38.892459	-77.046567	38.8997	-77.023086	member	late morning	Friday	11.583333333333334	['Ward 1', 'Ward 2', 'Ward 3', 'Ward 4', 'Ward 5', 'Ward 6', 'Ward 7', 'Ward 8']	POINT (-77.046567 38.892459)	34.0	11	001	02-002	1100102-002	A	Precinct 2	Precinct 2	00	G5240	N	1657481.0	27679.0	+38.8944563	-077.0426047
283E44117BFDB8E8	classic_bike	2021-01-01 09:39:37	2021-01-01 09:57:08	31328.0	3rd & H St NW	31604.0	38.898308	-77.046402	38.899408	-77.015289	member	late morning	Friday	17.516666666666666	['Ward 2']	POINT (-77.046402 38.898308)	34.0	11	001	02-002	1100102-002	A	Precinct 2	Precinct 2	00	G5240	N	1657481.0	27679.0	+38.8944563	-077.0426047
050364719D427A2E	classic_bike	2021-01-02 12:02:29	2021-01-02 12:12:18	31093.0	C & O Canal & Wisconsin Ave NW	31225.0	38.898984	-77.078317	38.90375	-77.06269	member	late morning	Saturday	9.816666666666666	['Arlington County']	POINT (-77.078317 38.898984)															
34609905D4716468	classic_bike	2021-01-01 03:26:48	2021-01-01 04:01:25	31252.0	10th & U St NW	31111.0	38.901539	-77.046564	38.9172	-77.0259	casual	early morning	Friday	34.61666666666667	['Ward 2']	POINT (-77.046564 38.901539)	34.0	11	001	02-002	1100102-002	A	Precinct 2	Precinct 2	00	G5240	N	1657481.0	27679.0	+38.8944563	-077.0426047
BEFF0AB65BB4100E	classic_bike	2021-01-02 13:25:35	2021-01-02 14:17:29	31127.0	19th St & Constitution Ave NW	31235.0	38.89892546716842	-77.04885238395946	38.8923	-77.0436	casual	afternoon	Saturday	51.9	['Ward 2']	POINT (-77.04885238395946 38.89892546716842)	34.0	11	001	02-002	1100102-002	A	Precinct 2	Precinct 2	00	G5240	N	1657481.0	27679.0	+38.8944563	-077.0426047
E20B244F193B5774	classic_bike	2021-01-01 00:34:28	2021-01-01 00:42:22	31257.0	10th & K St NW	31263.0	38.90088	-77.048911	38.9024	-77.02622	casual	early morning	Friday	7.9		POINT (-77.048911 38.90088)	34.0	11	001	02-002	1100102-002	A	Precinct 2	Precinct 2	00	G5240	N	1657481.0	27679.0	+38.8944563	-077.0426047
F84DAEFFFB08EB0C	classic_bike	2021-01-01 00:54:31	2021-01-01 01:07:47	31285.0	14th & Newton St NW	31649.0	38.909394	-77.048728	38.931991	-77.032956	member	early morning	Friday	13.266666666666667		POINT (-77.048728 38.909394)	32.0	11	001	02-014	1100102-014	A	Precinct 14	Precinct 14	00	G5240	N	561627.0	1111.0	+38.9107636	-077.0456294
8E9BE1EA595A6CFF	classic_bike	2021-01-01 16:22:41	2021-01-01 16:33:28	31292.0	17th & Corcoran St NW	31214.0	38.892441	-77.048947	38.9121	-77.0387	member	afternoon	Friday	10.783333333333333	['Ward 1', 'Ward 2', 'Ward 3', 'Ward 4', 'Ward 5', 'Ward 6', 'Ward 7', 'Ward 8']	POINT (-77.048947 38.892441)	34.0	11	001	02-002	1100102-002	A	Precinct 2	Precinct 2	00	G5240	N	1657481.0	27679.0	+38.8944563	-077.0426047
DA89DB295921CEE4	classic_bike	2021-01-02 10:21:35	2021-01-02 11:37:34	31260.0	23rd & E St NW 	31260.0	38.896104	-77.049882	38.896104	-77.049882	casual	late morning	Saturday	75.98333333333333		POINT (-77.049882 38.896104)	34.0	11	001	02-002	1100102-002	A	Precinct 2	Precinct 2	00	G5240	N	1657481.0	27679.0	+38.8944563	-077.0426047
F5F1BE3D253A6839	classic_bike	2021-01-01 08:45:54	2021-01-01 08:57:30	31128.0	11th & M St NW	31266.0	38.905303	-77.050264	38.9055785	-77.027313	casual	late morning	Friday	11.6		POINT (-77.050264 38.905303)	31.0	11	001	02-004	1100102-004	A	Precinct 4	Precinct 4	00	G5240	N	570471.0	5957.0	+38.9044997	-077.0507621
E29200178FC2D2F2	docked_bike	2021-01-02 11:42:17	2021-01-02 12:22:01	31938.0	1st & D St SE	31643.0	38.853002	-77.059496	38.884916	-77.005965	casual	late morning	Saturday	39.733333333333334	['Arlington County']	POINT (-77.059496 38.853002)															
51466F6C2BC1E777	classic_bike	2021-01-01 12:15:43	2021-01-01 12:28:12	31255.0	18th St & Wyoming Ave NW	31114.0	38.9066	-77.05152	38.918809	-77.041571	member	late morning	Friday	12.483333333333333		POINT (-77.05152 38.9066)	31.0	11	001	02-004	1100102-004	A	Precinct 4	Precinct 4	00	G5240	N	570471.0	5957.0	+38.9044997	-077.0507621
CD2611D54467CBB0	classic_bike	2021-01-02 10:35:42	2021-01-02 10:44:22	31520.0	Maryland Ave & 17th St NE	31656.0	38.91263	-76.971923	38.901935	-76.978627	member	late morning	Saturday	8.666666666666666		POINT (-76.971923 38.91263)	8.0	11	001	02-072	1100102-072	P	Precinct 72	Precinct 72	00	G5240	S	2872449.0	0.0	+38.9195912	-076.9828520
CBCAA6DE9A7165FB	electric_bike	2023-06-07 20:03:45	2023-06-07 20:09:38	31543.0	10th & Monroe St NE	31504.0	38.930829644	-76.972861052	38.932456900063606	-76.99353396892548	member	night	Wednesday	5.883333333333334	['Ward 1', 'Ward 2', 'Ward 3', 'Ward 4', 'Ward 5', 'Ward 6', 'Ward 7', 'Ward 8']	POINT (-76.972861052 38.930829644)	50.0	11	001	02-070	1100102-070	A	Precinct 70	Precinct 70	00	G5240	N	658076.0	0.0	+38.9308429	-076.9793329
2C6E8CDC9D7F9B96	classic_bike	2021-01-01 08:55:11	2021-01-01 08:57:36	31237.0	23rd & M St NW	31128.0	38.903827	-77.053485	38.905303	-77.050264	member	late morning	Friday	2.4166666666666665		POINT (-77.05348499999999 38.903827)	31.0	11	001	02-004	1100102-004	A	Precinct 4	Precinct 4	00	G5240	N	570471.0	5957.0	+38.9044997	-077.0507621
3D6CF143F83E1BE1	classic_bike	2021-01-02 12:06:50	2021-01-02 12:17:10	31055.0	Army Navy Dr & S Nash St	31095.0	38.846222	-77.069275	38.86215024521491	-77.06812083721161	member	late morning	Saturday	10.333333333333334		POINT (-77.069275 38.846222)															
54A13EFF4660BD54	classic_bike	2021-01-01 02:37:43	2021-01-01 02:41:53	31639.0	1st & M St NE	31603.0	38.89967	-77.003666	38.905697	-77.005483	member	early morning	Friday	4.166666666666667	['Ward 6']	POINT (-77.003666 38.89967)	43.0	11	001	02-083	1100102-083	A	Precinct 83	Precinct 83	00	G5240	N	1319433.0	0.0	+38.9025528	-077.0025314
E8C801E007010771	classic_bike	2021-01-02 15:18:32	2021-01-02 15:54:05	31667.0	7th & E St SW	31294.0	38.863743	-77.013814	38.88345	-77.021741	casual	afternoon	Saturday	35.55	['Ward 1', 'Ward 2', 'Ward 3', 'Ward 4', 'Ward 5', 'Ward 6', 'Ward 7', 'Ward 8']	POINT (-77.013814 38.863743)	2.0	11	001	02-127	1100102-127	A	Precinct 127	Precinct 127	00	G5240	N	1335150.0	610671.0	+38.8692390	-077.0150461
CEAC9F2658ED4836	electric_bike	2021-01-01 19:09:30	2021-01-01 19:15:21	31641.0	Massachusetts Ave & 6th St NE	31657.0	38.89494483333333	-77.003063	38.89297216666667	-76.9982735	member	night	Friday	5.85		POINT (-77.003063 38.89494483333333)	44.0	11	001	02-130	1100102-130	A	Precinct 130	Precinct 130	00	G5240	N	1016488.0	294.0	+38.8894008	-077.0067202
90D3CF342437B656	classic_bike	2021-01-01 06:20:01	2021-01-01 06:28:59	31522.0	6th St & Indiana Ave NW	31264.0	38.91475110883116	-77.00356006622314	38.894573	-77.01994	member	early morning	Friday	8.966666666666667		POINT (-77.00356006622314 38.91475110883116)	42.0	11	001	02-075	1100102-075	A	Precinct 75	Precinct 75	00	G5240	N	940270.0	0.0	+38.9142316	-077.0038000
D6C335523A37C07F	classic_bike	2021-01-01 00:25:52	2021-01-01 00:28:05	31307.0	Connecticut Ave & Newark St NW / Cleveland Park	31305.0	38.930282	-77.055599	38.934267	-77.057979	member	early morning	Friday	2.216666666666667	['Ward 1', 'Ward 2', 'Ward 3', 'Ward 4', 'Ward 5', 'Ward 6', 'Ward 7', 'Ward 8']	POINT (-77.055599 38.930282)	123.0	11	001	02-026	1100102-026	A	Precinct 26	Precinct 26	00	G5240	N	999065.0	6319.0	+38.9244927	-077.0569192
E27333F23D80AE30	classic_bike	2021-01-02 11:53:47	2021-01-02 13:13:45	31293.0	14th & Girard St NW	31123.0	38.902814	-77.061043	38.925284	-77.032375	member	afternoon	Saturday	79.96666666666667		POINT (-77.061043 38.902814)	61.0	11	001	02-005	1100102-005	A	Precinct 5	Precinct 5	00	G5240	N	1552166.0	77144.0	+38.9099163	-077.0604752
A6F4B4B86548FFAD	classic_bike	2021-01-02 11:34:56	2021-01-02 12:39:05	31072.0	George Mason High School / Haycock Rd & Leesburg Pike	32600.0	38.837666	-77.09482	38.895172	-77.190275	member	late morning	Saturday	64.15		POINT (-77.09482 38.837666)															
35E884B2005B9D30	classic_bike	2021-01-01 11:57:24	2021-01-01 12:08:45	31314.0	Wilson Blvd & N Troy St	31924.0	38.9037315	-77.0675285	38.892556	-77.082089	member	late morning	Friday	11.35		POINT (-77.06752849999999 38.9037315)	59.0	11	001	02-006	1100102-006	A	Precinct 6	Precinct 6	00	G5240	N	2270982.0	988106.0	+38.9029872	-077.0656372
BB095132BD478BB4	classic_bike	2021-01-01 14:06:24	2021-01-01 14:11:34	31226.0	34th St & Wisconsin Ave NW	31226.0	38.916442	-77.0682	38.916442	-77.0682	casual	afternoon	Friday	5.166666666666667		POINT (-77.0682 38.916442)	61.0	11	001	02-005	1100102-005	A	Precinct 5	Precinct 5	00	G5240	N	1552166.0	77144.0	+38.9099163	-077.0604752
A078DB1D08029C66	electric_bike	2021-01-01 05:39:38	2021-01-01 06:02:29	31304.0	John McCormack Dr & Michigan Ave NE	31502.0	38.92252	-77.07027016666666	38.934647	-76.9955485	casual	early morning	Friday	22.85	['Ward 1', 'Ward 2', 'Ward 3', 'Ward 4', 'Ward 5', 'Ward 6', 'Ward 7', 'Ward 8']	POINT (-77.07027016666666 38.92252)	77.0	11	001	02-012	1100102-012	A	Precinct 12	Precinct 12	00	G5240	N	1379174.0	69.0	+38.9236693	-077.0674911
7D70E6A53AC084F3	docked_bike	2021-01-02 14:45:36	2021-01-02 15:26:23	31715.0	Eastern Market Metro / Pennsylvania Ave & 8th St SE	31613.0	38.883011	-76.949709	38.88426	-76.994736	casual	afternoon	Saturday	40.78333333333333	['Ward 1', 'Ward 2', 'Ward 3', 'Ward 4', 'Ward 5', 'Ward 6', 'Ward 7', 'Ward 8']	POINT (-76.949709 38.883011)	101.0	11	001	02-107	1100102-107	A	Precinct 107	Precinct 107	00	G5240	N	1288535.0	0.0	+38.8808583	-076.9530186
A35777B439582C7F	electric_bike	2021-01-01 15:06:12	2021-01-01 15:51:13	31236.0	Pentagon City Metro / 12th St & S Hayes St	31005.0	38.90790016666666	-77.07163166666666	38.862081833333335	-77.05993216666667	member	afternoon	Friday	45.016666666666666		POINT (-77.07163166666666 38.90790016666666)	59.0	11	001	02-006	1100102-006	A	Precinct 6	Precinct 6	00	G5240	N	2270982.0	988106.0	+38.9029872	-077.0656372
DE663F38C51F17D0	classic_bike	2021-01-01 06:20:08	2021-01-01 06:27:47	31306.0	C & O Canal & Wisconsin Ave NW	31225.0	38.922649	-77.077271	38.90375	-77.06269	casual	early morning	Friday	7.65		POINT (-77.077271 38.922649)	110.0	11	001	02-011	1100102-011	A	Precinct 11	Precinct 11	00	G5240	N	976746.0	0.0	+38.9212657	-077.0764814
7C7D3E08883BCEAB	classic_bike	2021-01-02 04:50:46	2021-01-02 05:11:32	31308.0	21st & I St NW	31205.0	38.943837	-77.077078	38.90071062547463	-77.04644858837128	casual	early morning	Saturday	20.766666666666666		POINT (-77.077078 38.943837)	16.0	11	001	02-033	1100102-033	A	Precinct 33	Precinct 33	00	G5240	N	1305153.0	0.0	+38.9467037	-077.0705633
38E0F4E0BE56AC7E	classic_bike	2023-11-14 12:45:03	2023-11-14 12:51:18	31392.0	44th St & New Mexico Ave NW	31391.0	38.9257	-77.079119	38.933899	-77.086263	member	late morning	Tuesday	6.25		POINT (-77.07911900000001 38.9257)	110.0	11	001	02-011	1100102-011	A	Precinct 11	Precinct 11	00	G5240	N	976746.0	0.0	+38.9212657	-077.0764814
E61911679F1F72C8	classic_bike	2021-01-01 14:09:05	2021-01-01 14:16:56	31605.0	3rd & H St NE	31616.0	38.8851	-77.0023	38.900412	-77.001949	casual	afternoon	Friday	7.85		POINT (-77.00230000000001 38.8851)	54.0	11	001	02-089	1100102-089	A	Precinct 89	Precinct 89	00	G5240	N	696550.0	0.0	+38.8875092	-076.9989260
69643EC621FCD1AC	classic_bike	2021-01-01 09:13:32	2021-01-01 09:20:42	31118.0	14th & V St NW	31101.0	38.917622	-77.01597	38.9177645	-77.032096	member	late morning	Friday	7.166666666666667	['Ward 1']	POINT (-77.01597 38.917622)	130.0	11	001	02-020	1100102-020	A	Precinct 20	Precinct 20	00	G5240	N	441091.0	159593.0	+38.9221937	-077.0141502
B25B155755B7065E	classic_bike	2021-01-01 12:42:20	2021-01-01 12:47:42	31625.0	4th & East Capitol St NE	31618.0	38.881185	-77.001828	38.889955	-77.000349	member	late morning	Friday	5.366666666666666	['Ward 6']	POINT (-77.001828 38.881185)	58.0	11	001	02-090	1100102-090	A	Precinct 90	Precinct 90	00	G5240	N	466298.0	0.0	+38.8814115	-076.9957589
34B416297AF37742	electric_bike	2021-01-01 11:15:41	2021-01-01 11:49:40	31616.0	3rd & M St NE	31627.0	38.900481166666665	-77.00220966666667	38.90554166666666	-77.00221	member	late morning	Friday	33.983333333333334		POINT (-77.00220966666667 38.90048116666667)	43.0	11	001	02-083	1100102-083	A	Precinct 83	Precinct 83	00	G5240	N	1319433.0	0.0	+38.9025528	-077.0025314
21A4E889BCD7AD41	classic_bike	2021-01-01 09:16:44	2021-01-01 09:33:33	31604.0	21st St & G st NW	31328.0	38.899408	-77.015289	38.898308	-77.046402	member	late morning	Friday	16.816666666666666		POINT (-77.015289 38.899408)	0.0	11	001	02-143	1100102-143	A	Precinct 143	Precinct 143	00	G5240	N	574485.0	0.0	+38.8960081	-077.0179778
19A0334B6273E073	classic_bike	2021-01-01 01:00:29	2021-01-01 01:09:00	31627.0	Neal St & Trinidad Ave NE	31512.0	38.90546971494327	-77.0021304488182	38.903732	-76.987211	casual	early morning	Friday	8.516666666666667		POINT (-77.00213044881821 38.90546971494327)	43.0	11	001	02-083	1100102-083	A	Precinct 83	Precinct 83	00	G5240	N	1319433.0	0.0	+38.9025528	-077.0025314
1E8BA959607921D6	docked_bike	2022-06-30 11:10:11	2022-06-30 11:22:21	31669.0	4th St & Madison Dr NW	31288.0	38.876823	-77.002161	38.890496	-77.017247	casual	late morning	Thursday	12.166666666666666	['Ward 1', 'Ward 2', 'Ward 3', 'Ward 4', 'Ward 5', 'Ward 6', 'Ward 7', 'Ward 8']	POINT (-77.002161 38.876823)	3.0	11	001	02-131	1100102-131	A	Precinct 131	Precinct 131	00	G5240	N	1349612.0	312419.0	+38.8756862	-077.0013043
A639176CFA0BF800	classic_bike	2021-01-05 18:03:05	2021-01-05 18:15:47	31669.0	Maine Ave & 7th St SW	31609.0	38.876823	-77.002161	38.87869359939696	-77.02305436134338	casual	afternoon	Tuesday	12.7	['Ward 1', 'Ward 2', 'Ward 3', 'Ward 4', 'Ward 5', 'Ward 6', 'Ward 7', 'Ward 8']	POINT (-77.002161 38.876823)	3.0	11	001	02-131	1100102-131	A	Precinct 131	Precinct 131	00	G5240	N	1349612.0	312419.0	+38.8756862	-077.0013043
3E3F24EDC8A0ECF9	classic_bike	2023-01-03 18:31:10	2023-01-03 18:31:13	31540.0	3rd & N St NE	31540.0	38.907073	-77.002109	38.907073	-77.002109	member	afternoon	Tuesday	0.05		POINT (-77.002109 38.907073)	43.0	11	001	02-083	1100102-083	A	Precinct 83	Precinct 83	00	G5240	N	1319433.0	0.0	+38.9025528	-077.0025314
2CA5C60A52F796B0	classic_bike	2021-01-01 09:45:27	2021-01-01 09:47:19	31634.0	1st & N St  SE	31209.0	38.87501	-77.0024	38.8743	-77.0057	member	late morning	Friday	1.8666666666666667	['Ward 6']	POINT (-77.00239999999999 38.87501)	3.0	11	001	02-131	1100102-131	A	Precinct 131	Precinct 131	00	G5240	N	1349612.0	312419.0	+38.8756862	-077.0013043
6384BC67A81F869F	electric_bike	2021-01-01 11:29:05	2021-01-01 11:54:27	31413.0	New Hampshire Ave & Ward Pl NW	31212.0	38.96881483333333	-77.016253	38.90585866666667	-77.04709316666667	casual	late morning	Friday	25.366666666666667		POINT (-77.01625300000001 38.96881483333333)	12.0	11	001	02-059	1100102-059	A	Precinct 59	Precinct 59	00	G5240	N	887845.0	0.0	+38.9666529	-077.0199639
00CA60B96947211C	classic_bike	2021-01-01 14:39:41	2021-01-01 14:46:04	31269.0	Potomac & Pennsylvania Ave SE	31606.0	38.887378	-77.001955	38.8803	-76.9862	member	afternoon	Friday	6.383333333333334	['Ward 6']	POINT (-77.001955 38.887378)	54.0	11	001	02-089	1100102-089	A	Precinct 89	Precinct 89	00	G5240	N	696550.0	0.0	+38.8875092	-076.9989260
7A9EE787CDFE2B04	electric_bike	2021-01-04 15:50:48	2021-01-04 16:06:30	31412.0	3rd St & Riggs Rd NE	31412.0	38.95745516666667	-77.00231666666667	38.9575175	-77.00222983333333	casual	afternoon	Monday	15.7		POINT (-77.00231666666667 38.95745516666667)	29.0	11	001	02-065	1100102-065	P	Precinct 65	Precinct 65	00	G5240	S	854002.0	0.0	+38.9593932	-077.0016053
4B022BD43429E85F	classic_bike	2023-01-24 15:26:25	2023-01-24 16:06:17	31724.0	41st St & Alabama Ave SE / Fort Davis Rec	31724.0	38.870353	-76.945283	38.870353	-76.945283	casual	afternoon	Tuesday	39.86666666666667		POINT (-76.945283 38.870353)	71.0	11	001	02-110	1100102-110	A	Precinct 110	Precinct 110	00	G5240	N	1354412.0	0.0	+38.8644506	-076.9514835
E17A2353C4C2953D	classic_bike	2023-11-09 13:12:27	2023-11-09 13:21:26	31391.0	Yuma St & Tenley Circle NW	31316.0	38.933899	-77.086263	38.946182	-77.08059	member	afternoon	Thursday	8.983333333333333		POINT (-77.086263 38.933899)	139.0	11	001	02-010	1100102-010	A	Precinct 10	Precinct 10	00	G5240	N	1630483.0	0.0	+38.9322025	-077.0859910
851E6FFF77543EB4	docked_bike	2021-01-02 13:16:45	2021-01-02 14:32:04	32021.0	M St & Pennsylvania Ave NW	31246.0	38.982456	-77.091991	38.905126	-77.056887	casual	afternoon	Saturday	75.31666666666666		POINT (-77.09199099999999 38.982456)															
BCD73545AF35AA9C	classic_bike	2021-01-02 12:49:46	2021-01-02 13:00:28	31322.0	C & O Canal & Wisconsin Ave NW	31225.0	38.9170363119413	-77.0957824587822	38.90375	-77.06269	member	afternoon	Saturday	10.7		POINT (-77.0957824587822 38.9170363119413)	78.0	11	001	02-008	1100102-008	A	Precinct 8	Precinct 8	00	G5240	N	4108852.0	475235.0	+38.9268421	-077.1018015
D06CAD475416BC39	electric_bike	2021-01-02 10:03:28	2021-01-02 10:21:15	31243.0	18th & R St NW	31278.0	38.886297166666665	-77.01769333333333	38.91258033333333	-77.0420485	member	late morning	Saturday	17.783333333333335		POINT (-77.01769333333333 38.88629716666667)	39.0	11	001	02-142	1100102-142	A	Precinct 142	Precinct 142	00	G5240	N	1185545.0	136323.0	+38.8825835	-077.0248403
FE7F5F0B36438D6D	classic_bike	2022-09-14 21:00:11	2022-09-14 21:12:09	31138.0	16th & Harvard St NW	31135.0	38.92123296360907	-77.01813519001007	38.926102	-77.03665	casual	night	Wednesday	11.966666666666667		POINT (-77.01813519001007 38.92123296360907)	130.0	11	001	02-020	1100102-020	A	Precinct 20	Precinct 20	00	G5240	N	441091.0	159593.0	+38.9221937	-077.0141502
5260E682EDD0EF60	classic_bike	2021-01-02 16:47:30	2021-01-02 17:02:35	31621.0	11th & C St SE	31659.0	38.895344	-77.016106	38.885908	-76.991476	member	afternoon	Saturday	15.083333333333334		POINT (-77.01610599999999 38.895344)	0.0	11	001	02-143	1100102-143	A	Precinct 143	Precinct 143	00	G5240	N	574485.0	0.0	+38.8960081	-077.0179778
51E1FB21ABA84440	electric_bike	2021-01-01 11:06:09	2021-01-01 11:20:57	31244.0	12th & U St NW	31268.0	38.88408066666667	-77.01755683333333	38.91673216666667	-77.02816016666667	member	late morning	Friday	14.8		POINT (-77.01755683333333 38.88408066666667)	39.0	11	001	02-142	1100102-142	A	Precinct 142	Precinct 142	00	G5240	N	1185545.0	136323.0	+38.8825835	-077.0248403
A0CFDB951F36689A	classic_bike	2021-01-01 02:08:02	2021-01-01 02:17:04	31618.0	8th & K St NE	31660.0	38.889955	-77.000349	38.90273216425078	-76.99514991079923	member	early morning	Friday	9.033333333333333	['Ward 1', 'Ward 2', 'Ward 3', 'Ward 4', 'Ward 5', 'Ward 6', 'Ward 7', 'Ward 8']	POINT (-77.000349 38.889955)	54.0	11	001	02-089	1100102-089	A	Precinct 89	Precinct 89	00	G5240	N	696550.0	0.0	+38.8875092	-076.9989260
E78957081AFFDFEB	classic_bike	2021-10-13 13:13:29	2021-10-13 13:23:18	31532.0	4th St & K St NW	31642.0	38.90731645057457	-77.00069814920425	38.90240556584194	-77.01600551605225	member	afternoon	Wednesday	9.816666666666666	['Ward 1', 'Ward 2', 'Ward 3', 'Ward 4', 'Ward 5', 'Ward 6', 'Ward 7', 'Ward 8']	POINT (-77.00069814920425 38.90731645057457)	46.0	11	001	02-076	1100102-076	A	Precinct 76	Precinct 76	00	G5240	N	1799501.0	0.0	+38.9110453	-076.9880753
535D2215143CEE7C	docked_bike	2022-06-04 09:29:16	2022-06-04 09:41:41	31666.0	3rd & Tingey St SE	31634.0	38.881117	-77.017699	38.87501	-77.0024	casual	late morning	Saturday	12.416666666666666	['Ward 1', 'Ward 2', 'Ward 3', 'Ward 4', 'Ward 5', 'Ward 6', 'Ward 7', 'Ward 8']	POINT (-77.01769899999999 38.881117)	39.0	11	001	02-142	1100102-142	A	Precinct 142	Precinct 142	00	G5240	N	1185545.0	136323.0	+38.8825835	-077.0248403
0EF5D6951ED226D7	classic_bike	2021-01-01 11:05:33	2021-01-01 11:32:42	31652.0	14th & Q St NW	31327.0	38.876751	-77.000736	38.910674	-77.03188	member	late morning	Friday	27.15	['Ward 1', 'Ward 2', 'Ward 3', 'Ward 4', 'Ward 5', 'Ward 6', 'Ward 7', 'Ward 8']	POINT (-77.000736 38.876751)	3.0	11	001	02-131	1100102-131	A	Precinct 131	Precinct 131	00	G5240	N	1349612.0	312419.0	+38.8756862	-077.0013043
DA5494435694167E	classic_bike	2021-01-01 06:09:40	2021-01-01 06:13:31	31108.0	4th & E St SW	31244.0	38.876697	-77.0178975	38.88412	-77.017445	member	early morning	Friday	3.85	['Ward 1', 'Ward 2', 'Ward 3', 'Ward 4', 'Ward 5', 'Ward 6', 'Ward 7', 'Ward 8']	POINT (-77.0178975 38.876697)	39.0	11	001	02-142	1100102-142	A	Precinct 142	Precinct 142	00	G5240	N	1185545.0	136323.0	+38.8825835	-077.0248403
B8168D15DD0652E8	classic_bike	2023-02-10 13:38:59	2023-02-10 13:56:44	31678.0	Metro Center / 12th & G St NW	31230.0	38.872964	-77.017585	38.89832574246664	-77.02795878052711	member	afternoon	Friday	17.75	['Ward 1', 'Ward 2', 'Ward 3', 'Ward 4', 'Ward 5', 'Ward 6', 'Ward 7', 'Ward 8']	POINT (-77.017585 38.872964)	2.0	11	001	02-127	1100102-127	A	Precinct 127	Precinct 127	00	G5240	N	1335150.0	610671.0	+38.8692390	-077.0150461
25D6697B781EDC8B	classic_bike	2021-01-02 12:39:02	2021-01-02 12:49:57	31500.0	Rhode Island Ave Metro	31516.0	38.919077	-77.000648	38.920682	-76.995876	member	late morning	Saturday	10.916666666666666		POINT (-77.000648 38.919077)	42.0	11	001	02-075	1100102-075	A	Precinct 75	Precinct 75	00	G5240	N	940270.0	0.0	+38.9142316	-077.0038000
BAB5D24FF0C077F3	classic_bike	2021-01-01 09:28:59	2021-01-01 09:44:59	31666.0	4th & M St SW	31108.0	38.881123	-77.017658	38.876697	-77.0178975	member	late morning	Friday	16.0	['Ward 1', 'Ward 2', 'Ward 3', 'Ward 4', 'Ward 5', 'Ward 6', 'Ward 7', 'Ward 8']	POINT (-77.017658 38.881123)	39.0	11	001	02-142	1100102-142	A	Precinct 142	Precinct 142	00	G5240	N	1185545.0	136323.0	+38.8825835	-077.0248403
9B229D84329221A6	electric_bike	2021-01-01 01:08:13	2021-01-01 01:22:36	31642.0	Potomac & Pennsylvania Ave SE	31606.0	38.90239616666667	-77.01593216666667	38.88032283333333	-76.9862875	member	early morning	Friday	14.383333333333333		POINT (-77.01593216666667 38.90239616666667)	41.0	11	001	02-001	1100102-001	A	Precinct 1	Precinct 1	00	G5240	N	914103.0	0.0	+38.9008891	-077.0130353
AE4C158561400158	classic_bike	2021-01-01 07:50:03	2021-01-01 09:49:28	31288.0	Jefferson Memorial	31249.0	38.8904955	-77.0172465	38.879819	-77.037413	member	late morning	Friday	119.41666666666667	['Ward 1', 'Ward 2', 'Ward 3', 'Ward 4', 'Ward 5', 'Ward 6', 'Ward 7', 'Ward 8']	POINT (-77.0172465 38.8904955)	38.0	11	001	02-129	1100102-129	A	Precinct 129	Precinct 129	00	G5240	N	5511546.0	4586414.0	+38.8801745	-077.0328393
5104DDFCEBE5B895	docked_bike	2021-01-01 09:05:39	2021-01-01 09:15:31	31816.0	Valley Ave & Wheeler Rd SE	31824.0	38.836	-77.0009	38.836646	-76.993589	casual	late morning	Friday	9.866666666666667		POINT (-77.0009 38.836)	45.0	11	001	02-124	1100102-124	A	Precinct 124	Precinct 124	00	G5240	N	1165084.0	5479.0	+38.8335070	-077.0076816
B52E615B0B7604EC	classic_bike	2021-01-17 11:01:41	2021-01-17 11:12:15	31671.0	Benning Branch Library	31705.0	38.883318	-76.925315	38.894	-76.947974	casual	late morning	Sunday	10.566666666666666		POINT (-76.925315 38.883318)	80.0	11	001	02-105	1100102-105	A	Precinct 105	Precinct 105	00	G5240	N	627175.0	0.0	+38.8862550	-076.9219621
D1C524618A469A94	classic_bike	2021-01-02 01:33:16	2021-01-02 01:53:53	31620.0	5th St & Massachusetts Ave NW	31265.0	38.897222	-77.019347	38.90093	-77.018677	member	early morning	Saturday	20.616666666666667	['Ward 1', 'Ward 2', 'Ward 3', 'Ward 4', 'Ward 5', 'Ward 6', 'Ward 7', 'Ward 8']	POINT (-77.019347 38.897222)	0.0	11	001	02-143	1100102-143	A	Precinct 143	Precinct 143	00	G5240	N	574485.0	0.0	+38.8960081	-077.0179778
39C6E0F30E656F74	classic_bike	2021-01-01 08:40:01	2021-01-01 08:56:00	31600.0	11th & Girard St NW	31126.0	38.90304	-77.019027	38.925636	-77.027112	member	late morning	Friday	15.983333333333333		POINT (-77.01902699999999 38.90304)	41.0	11	001	02-001	1100102-001	A	Precinct 1	Precinct 1	00	G5240	N	914103.0	0.0	+38.9008891	-077.0130353
E4BB8A85F1A7D71A	electric_bike	2021-01-01 16:29:54	2021-01-01 16:46:42	31403.0	5th & Kennedy St NW	31403.0	38.9565815	-77.01976566666667	38.956576	-77.01978283333334	member	afternoon	Friday	16.8		POINT (-77.01976566666667 38.9565815)	56.0	11	001	02-056	1100102-056	A	Precinct 56	Precinct 56	00	G5240	N	627624.0	0.0	+38.9542149	-077.0227204
BE4467D6EF3D4EA5	classic_bike	2022-09-20 12:27:07	2022-09-20 12:29:52	31536.0	Eckington Pl & Q St NE	31505.0	38.90728677325468	-76.99916660785675	38.910972	-77.00495	member	late morning	Tuesday	2.75		POINT (-76.99916660785675 38.90728677325468)	46.0	11	001	02-076	1100102-076	A	Precinct 76	Precinct 76	00	G5240	N	1799501.0	0.0	+38.9110453	-076.9880753
8D4EC3F4D7526D3D	classic_bike	2021-01-01 03:45:20	2021-01-01 03:48:00	31265.0	8th & H St NW	31228.0	38.90093	-77.018677	38.8997	-77.023086	member	early morning	Friday	2.6666666666666665	['Ward 1', 'Ward 2', 'Ward 3', 'Ward 4', 'Ward 5', 'Ward 6', 'Ward 7', 'Ward 8']	POINT (-77.018677 38.90093)	0.0	11	001	02-143	1100102-143	A	Precinct 143	Precinct 143	00	G5240	N	574485.0	0.0	+38.8960081	-077.0179778
C0D719E2ED0D2E13	classic_bike	2021-01-14 14:44:04	2021-01-14 14:53:32	32901.0	Fort Totten Metro	31515.0	38.96381	-77.010266	38.952369	-77.002721	member	afternoon	Thursday	9.466666666666667		POINT (-77.010266 38.96381)	19.0	11	001	02-064	1100102-064	P	Precinct 64	Precinct 64	00	G5240	S	1176606.0	0.0	+38.9633354	-077.0106136
A35C7F6B1F6094DA	docked_bike	2021-01-02 09:03:06	2021-01-02 09:13:56	31714.0	61st St & Banks Pl NE	31714.0	38.891805	-76.913563	38.891805	-76.913563	casual	late morning	Saturday	10.833333333333334		POINT (-76.913563 38.891805)	57.0	11	001	02-096	1100102-096	A	Precinct 96	Precinct 96	00	G5240	N	775630.0	4774.0	+38.8922212	-076.9192026
4053E619974A64EA	classic_bike	2021-01-01 11:44:43	2021-01-01 11:50:58	31615.0	Montello Ave & Holbrook Terr NE	31524.0	38.899972	-76.998347	38.907444	-76.986813	member	late morning	Friday	6.25		POINT (-76.998347 38.899972)	43.0	11	001	02-083	1100102-083	A	Precinct 83	Precinct 83	00	G5240	N	1319433.0	0.0	+38.9025528	-077.0025314
7BAFB2C78A9F118D	electric_bike	2021-01-01 01:46:12	2021-01-01 02:14:07	31645.0	Georgia Ave & Piney Branch Rd NW	31414.0	38.9030185	-76.99838983333333	38.96754966666666	-77.02797433333333	member	early morning	Friday	27.916666666666668		POINT (-76.99838983333333 38.9030185)	43.0	11	001	02-083	1100102-083	A	Precinct 83	Precinct 83	00	G5240	N	1319433.0	0.0	+38.9025528	-077.0025314
BA9C67F58F0736E8	classic_bike	2021-01-01 09:24:44	2021-01-01 09:42:14	31264.0	Lincoln Memorial	31258.0	38.894573	-77.01994	38.888255	-77.0494365	member	late morning	Friday	17.5	['Ward 1', 'Ward 2', 'Ward 3', 'Ward 4', 'Ward 5', 'Ward 6', 'Ward 7', 'Ward 8']	POINT (-77.01994000000001 38.894573)	0.0	11	001	02-143	1100102-143	A	Precinct 143	Precinct 143	00	G5240	N	574485.0	0.0	+38.8960081	-077.0179778
AD07BCCA5957AA2E	docked_bike	2021-01-02 13:58:05	2021-01-02 15:43:52	31294.0	Crystal Dr & 15th St S	31003.0	38.88345	-77.021741	38.86017	-77.049593	casual	afternoon	Saturday	105.78333333333333		POINT (-77.02174100000001 38.88345)	39.0	11	001	02-142	1100102-142	A	Precinct 142	Precinct 142	00	G5240	N	1185545.0	136323.0	+38.8825835	-077.0248403
C0A48FDE0A7639D7	classic_bike	2021-01-01 08:26:16	2021-01-01 08:31:14	31232.0	5th & K St NW	31600.0	38.89728304853854	-77.02219069004059	38.90304	-77.019027	member	late morning	Friday	4.966666666666667	['Ward 1', 'Ward 2', 'Ward 3', 'Ward 4', 'Ward 5', 'Ward 6', 'Ward 7', 'Ward 8']	POINT (-77.02219069004059 38.89728304853854)	38.0	11	001	02-129	1100102-129	A	Precinct 129	Precinct 129	00	G5240	N	5511546.0	4586414.0	+38.8801745	-077.0328393
E2C12F43BE952653	classic_bike	2021-01-01 10:04:10	2021-01-01 10:27:22	31653.0	5th & K St NW	31600.0	38.902674	-77.021392	38.90304	-77.019027	casual	late morning	Friday	23.2		POINT (-77.02139200000001 38.902674)	40.0	11	001	02-018	1100102-018	A	Precinct 18	Precinct 18	00	G5240	N	667877.0	0.0	+38.9083749	-077.0202171
BA452DCC0C612FD9	classic_bike	2022-08-16 16:08:10	2022-08-16 16:15:42	31534.0	18th & Monroe St NE	31521.0	38.932242581555066	-76.9961330294609	38.93293	-76.979517	member	afternoon	Tuesday	7.533333333333333		POINT (-76.99613302946091 38.93224258155507)	7.0	11	001	02-074	1100102-074	A	Precinct 74	Precinct 74	00	G5240	N	1514162.0	0.0	+38.9252593	-076.9999360
D2B9DB2BD50BC7B5	classic_bike	2021-01-01 01:11:00	2021-01-01 01:14:17	31245.0	14th & R St NW	31202.0	38.912719	-77.022155	38.913046	-77.032008	member	early morning	Friday	3.283333333333333	['Ward 1', 'Ward 2']	POINT (-77.022155 38.912719)	86.0	11	001	02-021	1100102-021	P	Precinct 21	Precinct 21	00	G5240	S	197461.0	0.0	+38.9131989	-077.0231037
43F445338D8AEFC1	classic_bike	2021-01-01 10:23:59	2021-01-01 10:27:21	31130.0	8th & O St NW	31281.0	38.9142043187298	-77.0221745967865	38.90864	-77.02277	member	late morning	Friday	3.3666666666666667	['Ward 1', 'Ward 2', 'Ward 3', 'Ward 4', 'Ward 5', 'Ward 6', 'Ward 7', 'Ward 8']	POINT (-77.0221745967865 38.9142043187298)	133.0	11	001	02-137	1100102-137	A	Precinct 137	Precinct 137	00	G5240	N	187480.0	0.0	+38.9153538	-077.0247928
63765A4418BD54F5	classic_bike	2021-01-01 15:04:54	2021-01-01 15:08:30	31109.0	New Jersey Ave & R St NW	31509.0	38.9155	-77.0222	38.912659	-77.017669	member	afternoon	Friday	3.6	['Ward 1']	POINT (-77.0222 38.9155)	133.0	11	001	02-137	1100102-137	A	Precinct 137	Precinct 137	00	G5240	N	187480.0	0.0	+38.9153538	-077.0247928
A1812108CB93F6EA	classic_bike	2023-01-19 19:15:24	2023-01-19 19:23:31	31109.0	Georgia Ave & Morton St NW	31419.0	38.9156929	-77.021703	38.932128	-77.0235	member	night	Thursday	8.116666666666667	['Ward 1']	POINT (-77.021703 38.9156929)	133.0	11	001	02-137	1100102-137	A	Precinct 137	Precinct 137	00	G5240	N	187480.0	0.0	+38.9153538	-077.0247928
1D12F2455A372283	electric_bike	2021-01-01 00:40:45	2021-01-01 01:05:09	31647.0	15th & W St NW	31125.0	38.89220933333333	-76.99593266666666	38.91904783333333	-77.03445933333333	member	early morning	Friday	24.4		POINT (-76.99593266666666 38.89220933333333)	55.0	11	001	02-085	1100102-085	A	Precinct 85	Precinct 85	00	G5240	N	460799.0	0.0	+38.8927998	-076.9939548
41F357E015263C41	classic_bike	2021-01-02 12:20:14	2021-01-02 12:30:09	31270.0	5th & K St NW	31600.0	38.894851	-77.02324	38.90304	-77.019027	casual	late morning	Saturday	9.916666666666666	['Ward 1', 'Ward 2', 'Ward 3', 'Ward 4', 'Ward 5', 'Ward 6', 'Ward 7', 'Ward 8']	POINT (-77.02324 38.894851)	0.0	11	001	02-143	1100102-143	A	Precinct 143	Precinct 143	00	G5240	N	574485.0	0.0	+38.8960081	-077.0179778
A990DB424D79ED8D	classic_bike	2021-01-01 10:07:30	2021-01-01 10:12:57	31629.0	8th & K St NE	31660.0	38.889988	-76.995193	38.90273216425078	-76.99514991079923	member	late morning	Friday	5.45	['Ward 6']	POINT (-76.995193 38.889988)	55.0	11	001	02-085	1100102-085	A	Precinct 85	Precinct 85	00	G5240	N	460799.0	0.0	+38.8927998	-076.9939548
4748720B08D1D541	classic_bike	2021-01-01 11:09:00	2021-01-01 11:11:04	31608.0	8th & Eye St SE / Barracks Row	31608.0	38.8792	-76.9953	38.8792	-76.9953	member	late morning	Friday	2.066666666666667	['Ward 6']	POINT (-76.9953 38.8792)	58.0	11	001	02-090	1100102-090	A	Precinct 90	Precinct 90	00	G5240	N	466298.0	0.0	+38.8814115	-076.9957589
859BC7C1B9560974	classic_bike	2021-01-01 10:22:07	2021-01-01 10:41:50	31631.0	8th & F St NE	31631.0	38.897274	-76.994749	38.897274	-76.994749	member	late morning	Friday	19.716666666666665		POINT (-76.994749 38.897274)	52.0	11	001	02-082	1100102-082	A	Precinct 82	Precinct 82	00	G5240	N	461624.0	0.0	+38.8997971	-076.9908332
F7473C92F7668292	classic_bike	2021-01-01 09:37:06	2021-01-01 09:45:55	31661.0	3rd & H St NW	31604.0	38.899941626884754	-76.99489653110504	38.899408	-77.015289	member	late morning	Friday	8.816666666666666		POINT (-76.99489653110504 38.89994162688475)	52.0	11	001	02-082	1100102-082	A	Precinct 82	Precinct 82	00	G5240	N	461624.0	0.0	+38.8997971	-076.9908332
B66FCFB030CB205D	classic_bike	2021-01-01 11:10:07	2021-01-01 11:15:17	31228.0	14th & G St NW	31238.0	38.8997	-77.023086	38.898409	-77.032278	member	late morning	Friday	5.166666666666667	['Ward 1', 'Ward 2', 'Ward 3', 'Ward 4', 'Ward 5', 'Ward 6', 'Ward 7', 'Ward 8']	POINT (-77.02308600000001 38.8997)	38.0	11	001	02-129	1100102-129	A	Precinct 129	Precinct 129	00	G5240	N	5511546.0	4586414.0	+38.8801745	-077.0328393
62290E3DB766FC9A	classic_bike	2021-01-01 11:14:50	2021-01-01 11:17:44	31660.0	3rd & H St NE	31616.0	38.90273216425078	-76.99514991079923	38.900412	-77.001949	member	late morning	Friday	2.9		POINT (-76.99514991079923 38.90273216425078)	43.0	11	001	02-083	1100102-083	A	Precinct 83	Precinct 83	00	G5240	N	1319433.0	0.0	+38.9025528	-077.0025314
9F18FC35720357D6	classic_bike	2021-01-01 08:32:15	2021-01-01 08:41:28	31281.0	New Hampshire Ave & T St NW	31229.0	38.90864	-77.02277	38.915544	-77.038252	member	late morning	Friday	9.216666666666667	['Ward 1', 'Ward 2']	POINT (-77.02276999999999 38.90864)	40.0	11	001	02-018	1100102-018	A	Precinct 18	Precinct 18	00	G5240	N	667877.0	0.0	+38.9083749	-077.0202171
8B5063D8BF734688	classic_bike	2021-10-05 16:00:54	2021-10-05 16:09:47	31134.0	1st & Rhode Island Ave NW	31506.0	38.917716	-77.022684	38.915417	-77.012289	member	afternoon	Tuesday	8.883333333333333	['Ward 1']	POINT (-77.022684 38.917716)	127.0	11	001	02-037	1100102-037	A	Precinct 37	Precinct 37	00	G5240	N	901995.0	0.0	+38.9220218	-077.0221634
8C9F716ACB886AFB	classic_bike	2021-08-21 09:48:19	2021-08-21 10:19:14	31951.0	Ballston Metro / Stuart St & 9th St N	31037.0	38.857049	-77.116339	38.881044	-77.111768	casual	late morning	Saturday	30.916666666666668		POINT (-77.116339 38.857049)															
C87FEEF4E51A0A0F	classic_bike	2023-02-02 17:22:39	2023-02-02 17:26:28	30201.0	14th & G St NW	31238.0	38.898097	-77.023924	38.89816396413188	-77.03189760446548	member	afternoon	Thursday	3.816666666666667	['Ward 2']	POINT (-77.02392399999999 38.898097)	38.0	11	001	02-129	1100102-129	A	Precinct 129	Precinct 129	00	G5240	N	5511546.0	4586414.0	+38.8801745	-077.0328393
F7CF5EA3F0409DD3	classic_bike	2022-09-06 14:38:43	2022-09-06 14:44:57	31424.0	Georgia & Missouri Ave NW	31411.0	38.95366314394005	-77.02561318874359	38.961339	-77.027855	casual	afternoon	Tuesday	6.233333333333333		POINT (-77.02561318874359 38.95366314394005)	56.0	11	001	02-056	1100102-056	A	Precinct 56	Precinct 56	00	G5240	N	627624.0	0.0	+38.9542149	-077.0227204
26E93975813768E5	classic_bike	2021-01-01 01:27:55	2021-01-01 01:42:05	31404.0	North Capitol & R St NE	31527.0	38.9418	-77.0251	38.912524	-77.008798	member	early morning	Friday	14.166666666666666	['Ward 4']	POINT (-77.02509999999999 38.9418)	23.0	11	001	02-045	1100102-045	P	Precinct 45	Precinct 45	00	G5240	S	401720.0	0.0	+38.9400676	-077.0200419
E64C12518B0EDE47	electric_bike	2023-02-01 15:16:35	2023-02-01 15:22:10	30200.0	4th & East Capitol St NE	31618.0	38.89410016666667	-77.0242895	38.889955	-77.000349	casual	afternoon	Wednesday	5.583333333333333	['Ward 1', 'Ward 2', 'Ward 3', 'Ward 4', 'Ward 5', 'Ward 6', 'Ward 7', 'Ward 8']	POINT (-77.02428949999999 38.89410016666667)	38.0	11	001	02-129	1100102-129	A	Precinct 129	Precinct 129	00	G5240	N	5511546.0	4586414.0	+38.8801745	-077.0328393
89BE52B4E8A6A6E0	classic_bike	2021-01-01 02:10:09	2021-01-01 02:16:36	31104.0	15th & W St NW	31125.0	38.922925	-77.042581	38.9190185	-77.034449	member	early morning	Friday	6.45	['Ward 1', 'Ward 2', 'Ward 3', 'Ward 4', 'Ward 5', 'Ward 6', 'Ward 7', 'Ward 8']	POINT (-77.042581 38.922925)	62.0	11	001	02-035	1100102-035	A	Precinct 35	Precinct 35	00	G5240	N	473809.0	11205.0	+38.9249705	-077.0439028
0D921D90D97519BE	classic_bike	2021-01-01 03:45:59	2021-01-01 03:51:33	31800.0	Congress Heights Metro	31806.0	38.84322988730829	-76.99937582015991	38.844711	-76.987823	casual	early morning	Friday	5.566666666666666		POINT (-76.99937582015991 38.84322988730829)	141.0	11	001	02-123	1100102-123	A	Precinct 123	Precinct 123	00	G5240	N	4839956.0	3991590.0	+38.8443847	-077.0190320
A5B6BEA72452D7E6	classic_bike	2021-01-06 12:50:47	2021-01-06 13:26:53	31813.0	Alabama Ave & Stanton Rd SE / Shops at Park Village	31813.0	38.84627	-76.98185	38.84627	-76.98185	casual	afternoon	Wednesday	36.1		POINT (-76.98184999999999 38.84627)	115.0	11	001	02-120	1100102-120	A	Precinct 120	Precinct 120	00	G5240	N	766457.0	3981.0	+38.8417979	-076.9855591
E48A7C55C9C2E81E	classic_bike	2021-01-01 14:14:49	2021-01-01 14:21:02	31320.0	Tenleytown / Wisconsin Ave & Albemarle St NW	31303.0	38.936298	-77.087128	38.947607	-77.079382	casual	afternoon	Friday	6.216666666666667		POINT (-77.08712800000001 38.936298)	139.0	11	001	02-010	1100102-010	A	Precinct 10	Precinct 10	00	G5240	N	1630483.0	0.0	+38.9322025	-077.0859910
A769D93F1D1CF489	classic_bike	2021-01-02 12:39:39	2021-01-02 13:09:02	32063.0	Amherst Ave & Elkins St	32063.0	39.044887	-77.047788	39.044887	-77.047788	casual	afternoon	Saturday	29.383333333333333		POINT (-77.047788 39.044887)															
00C9AA4BCF05B24D	classic_bike	2021-01-06 14:34:51	2021-01-06 15:06:29	32064.0	Amherst Ave & Prichard Rd	32064.0	39.035965	-77.048395	39.035965	-77.048395	casual	afternoon	Wednesday	31.633333333333333		POINT (-77.048395 39.035965)															
0CD527EE525E3ED4	classic_bike	2021-01-02 12:24:38	2021-01-02 12:41:22	31708.0	37th & Ely Pl SE	31715.0	38.896544	-76.96012	38.883011	-76.949709	member	late morning	Saturday	16.733333333333334	['Ward 1', 'Ward 2', 'Ward 3', 'Ward 4', 'Ward 5', 'Ward 6', 'Ward 7', 'Ward 8']	POINT (-76.96012 38.896544)	94.0	11	001	02-101	1100102-101	A	Precinct 101	Precinct 101	00	G5240	N	427187.0	65762.0	+38.8931572	-076.9585043
633A194202FD2D1F	electric_bike	2022-09-13 19:30:56	2022-09-13 20:04:45	31721.0	Rosedale Rec Center	31658.0	38.89035633333334	-76.96126283333334	38.897808	-76.979634	member	night	Tuesday	33.81666666666667	['Ward 1', 'Ward 2', 'Ward 3', 'Ward 4', 'Ward 5', 'Ward 6', 'Ward 7', 'Ward 8']	POINT (-76.96126283333334 38.89035633333334)	94.0	11	001	02-101	1100102-101	A	Precinct 101	Precinct 101	00	G5240	N	427187.0	65762.0	+38.8931572	-076.9585043
7E69299DD9BF1A5F	electric_bike	2021-01-02 01:23:15	2021-01-02 01:48:11	31804.0	Anacostia Library	31804.0	38.8658165	-76.97839916666666	38.86569383333333	-76.9782245	casual	early morning	Saturday	24.933333333333334	['Ward 1', 'Ward 2', 'Ward 3', 'Ward 4', 'Ward 5', 'Ward 6', 'Ward 7', 'Ward 8']	POINT (-76.97839916666666 38.8658165)	105.0	11	001	02-112	1100102-112	A	Precinct 112	Precinct 112	00	G5240	N	410395.0	0.0	+38.8663783	-076.9757179
C7B87B3C657FE848	classic_bike	2021-01-02 10:29:16	2021-01-02 12:33:03	31801.0	Bethesda Ave & Arlington Rd	32002.0	38.862669	-76.994637	38.981103	-77.097426	casual	late morning	Saturday	123.78333333333333		POINT (-76.994637 38.862669)	65.0	11	001	02-119	1100102-119	A	Precinct 119	Precinct 119	00	G5240	N	2927995.0	207986.0	+38.8575336	-076.9962856
C1EB38898C0643DD	classic_bike	2021-01-01 08:11:44	2021-01-01 08:42:44	31820.0	Anacostia Park	31820.0	38.87335	-76.9834	38.87335	-76.9834	casual	late morning	Friday	31.0	['Ward 1', 'Ward 2', 'Ward 3', 'Ward 4', 'Ward 5', 'Ward 6', 'Ward 7', 'Ward 8']	POINT (-76.9834 38.87335)	87.0	11	001	02-140	1100102-140	A	Precinct 140	Precinct 140	00	G5240	N	716473.0	138800.0	+38.8729784	-076.9793634
E0B4D7BD5E8F7F52	classic_bike	2022-09-02 13:12:24	2022-09-02 15:42:48	31720.0	Eastern Market Metro / Pennsylvania Ave & 8th St SE	31613.0	38.878771	-76.97093	38.88409514578027	-76.99523448944092	casual	afternoon	Friday	150.4	['Ward 1', 'Ward 2', 'Ward 3', 'Ward 4', 'Ward 5', 'Ward 6', 'Ward 7', 'Ward 8']	POINT (-76.97093 38.878771)	99.0	11	001	02-111	1100102-111	A	Precinct 111	Precinct 111	00	G5240	N	1076454.0	85414.0	+38.8735489	-076.9695068
8B695E01DDAC58EA	docked_bike	2021-02-23 09:25:00	2021-02-23 09:51:12	31720	Anacostia Park	31820	38.878771	-76.97093	38.87335	-76.9834	casual	late morning	Tuesday	26.2	['Ward 1', 'Ward 2', 'Ward 3', 'Ward 4', 'Ward 5', 'Ward 6', 'Ward 7', 'Ward 8']	POINT (-76.97093 38.878771)	99.0	11	001	02-111	1100102-111	A	Precinct 111	Precinct 111	00	G5240	N	1076454.0	85414.0	+38.8735489	-076.9695068
DBCE5070234D1E50	classic_bike	2021-10-07 21:10:40	2021-10-07 21:29:23	31331.0	Ward Circle / American University	31301.0	38.927294	-77.103662	38.938736	-77.087171	member	night	Thursday	18.716666666666665		POINT (-77.103662 38.927294)	78.0	11	001	02-008	1100102-008	A	Precinct 8	Precinct 8	00	G5240	N	4108852.0	475235.0	+38.9268421	-077.1018015
8D43AFCEEF29B51A	classic_bike	2021-10-20 18:02:15	2021-10-20 18:14:50	31331.0	Hardy Rec Center	31326.0	38.927294	-77.103662	38.90970086204467	-77.08564639091492	member	afternoon	Wednesday	12.583333333333334		POINT (-77.103662 38.927294)	78.0	11	001	02-008	1100102-008	A	Precinct 8	Precinct 8	00	G5240	N	4108852.0	475235.0	+38.9268421	-077.1018015
0D5B6BCE4359FAA0	classic_bike	2023-06-28 12:54:01	2023-06-28 12:54:09	32268.0	Arlington Blvd & Allen St	32268.0	38.866315	-77.199799	38.866315	-77.199799	member	late morning	Wednesday	0.13333333333333333		POINT (-77.199799 38.866315)															
B8E8841B432FB89B	classic_bike	2021-01-02 09:49:58	2021-01-02 10:08:26	31940.0	Eads St & 12th St S	31071.0	38.88625606692058	-77.08426237106323	38.862753	-77.05428	member	late morning	Saturday	18.466666666666665	['Arlington County']	POINT (-77.08426237106323 38.88625606692058)															
82342866376E5271	classic_bike	2021-01-02 10:35:14	2021-01-02 10:42:23	31070.0	Columbia Pike & S Walter Reed Dr	31067.0	38.873755	-77.089233	38.862478	-77.086599	member	late morning	Saturday	7.15	['Arlington County']	POINT (-77.08923299999999 38.873755)															
00946EA6C872270F	classic_bike	2021-01-22 04:45:32	2021-01-22 04:50:14	31937.0	Lynn St & 19th St North	31014.0	38.890863	-77.074893	38.897315	-77.070993	member	early morning	Friday	4.7	['Arlington County']	POINT (-77.074893 38.890863)															
847EAA191060947F	classic_bike	2021-01-01 01:24:59	2021-01-01 01:51:31	31051.0	Joyce St & 16th St S	31091.0	38.889365	-77.077294	38.859254	-77.063275	member	early morning	Friday	26.533333333333335		POINT (-77.07729399999999 38.889365)															
F12003C189573210	docked_bike	2021-01-07 16:57:50	2021-01-07 16:59:49	31078.0	Arlington Blvd & S George Mason Dr	31078.0	38.869442	-77.104503	38.869442	-77.104503	casual	afternoon	Thursday	1.9833333333333334	['Arlington County']	POINT (-77.10450299999999 38.869442)															
D7982A00077E49DC	classic_bike	2021-01-02 11:47:15	2021-01-02 12:14:07	31068.0	Fairfax Dr & N Randolph St	31034.0	38.856319	-77.11153	38.882629	-77.109366	casual	late morning	Saturday	26.866666666666667		POINT (-77.11153 38.856319)															
C594070FD4930345	classic_bike	2023-04-26 12:18:12	2023-04-26 12:18:16	31978.0	Arlington National Cemetery	31978.0	38.884473	-77.065658	38.884473	-77.065658	member	late morning	Wednesday	0.06666666666666667	['Arlington County']	POINT (-77.065658 38.884473)															
A02087BED4AECB94	classic_bike	2022-12-09 18:04:23	2022-12-09 18:18:14	31936.0	Commonwealth and Reed	31960.0	38.864838	-77.056873	38.8368376462948	-77.05727398395538	member	afternoon	Friday	13.85	['Arlington County']	POINT (-77.056873 38.864838)															
FCCB4E9BAA5CD6E2	electric_bike	2021-01-02 11:47:22	2021-01-02 12:15:11	31006.0	Troy St & 26th St S	31056.0	38.86334716666666	-77.0634085	38.84805033333333	-77.07519466666666	casual	late morning	Saturday	27.816666666666666	['Arlington County']	POINT (-77.06340849999999 38.86334716666666)															
028EC8B68685F0B9	classic_bike	2021-01-02 11:26:10	2021-01-02 11:44:52	31095.0	S Glebe Rd & Potomac Ave	31010.0	38.86215024521491	-77.06812083721161	38.8426	-77.0502	member	late morning	Saturday	18.7	['Arlington County']	POINT (-77.06812083721161 38.86215024521491)															
E151354156C3F6CB	classic_bike	2021-01-02 15:21:30	2021-01-02 15:29:58	31004.0	Long Bridge Park / Long Bridge Dr & 6th St S	31090.0	38.857866	-77.05949	38.865553	-77.05003	member	afternoon	Saturday	8.466666666666667	['Arlington County']	POINT (-77.05949 38.857866)															
A12A91B8F6A653FF	classic_bike	2021-01-04 09:47:42	2021-01-04 09:59:18	31084.0	St. Asaph & Montgomery St	31931.0	38.802677	-77.063562	38.814185	-77.043809	member	late morning	Monday	11.6		POINT (-77.063562 38.802677)															
3B8B4FABC55B056F	electric_bike	2021-01-01 08:01:23	2021-01-01 08:18:24	31037.0	Lynn St & 19th St North	31014.0	38.88099316666667	-77.11184716666666	38.89761416666666	-77.07107283333333	casual	late morning	Friday	17.016666666666666		POINT (-77.11184716666666 38.88099316666667)															
0E4F968DE2DE1CB4	classic_bike	2021-01-03 17:20:21	2021-01-03 17:45:22	32403.0	Prince George's Plaza Metro	32420.0	38.95548	-76.940133	38.965742	-76.954803	casual	afternoon	Sunday	25.016666666666666		POINT (-76.940133 38.95548)															
FD6ED23CA9B076E1	classic_bike	2021-01-02 16:01:47	2021-01-02 16:23:39	32402.0	Baltimore Ave & Van Buren St / Riverdale Park Station	32402.0	38.969581	-76.937349	38.969581	-76.937349	member	afternoon	Saturday	21.866666666666667		POINT (-76.937349 38.969581)															
966B784A318D1E1B	classic_bike	2021-01-02 13:45:33	2021-01-02 13:57:18	31033.0	Barcroft Community Center	31033.0	38.85033657788445	-77.1009886264801	38.85033657788445	-77.1009886264801	casual	afternoon	Saturday	11.75		POINT (-77.1009886264801 38.85033657788445)															
2B0F1EE49D989F2F	classic_bike	2021-07-12 11:09:01	2021-07-12 11:09:06	32237.0	Baron Cameron Ave & North Hampton Ave	32237.0	38.966344	-77.359341	38.966344	-77.359341	member	late morning	Monday	0.08333333333333333	['Fairfax County']	POINT (-77.359341 38.966344)															
175A2B329D0932B6	classic_bike	2021-01-02 11:15:36	2021-01-02 11:32:00	31050.0	TJ Cmty Ctr / 2nd St & S Old Glebe Rd	31074.0	38.884961	-77.08777	38.869418	-77.095596	casual	late morning	Saturday	16.4	['Arlington County']	POINT (-77.08777000000001 38.884961)															
DCF44A785D630B48	classic_bike	2021-01-01 09:45:39	2021-01-01 09:48:51	32027.0	Norfolk Ave & Fairmont St	32000.0	38.992375	-77.100104	38.988562	-77.096539	casual	late morning	Friday	3.2		POINT (-77.100104 38.992375)															
490EA61138A19A9D	classic_bike	2021-09-21 16:57:18	2021-09-21 17:27:44	32239.0	Becontree Ln & Goldenrain Ct	32239.0	38.966848	-77.329282	38.966848	-77.329282	casual	afternoon	Tuesday	30.433333333333334	['Fairfax County']	POINT (-77.32928200000001 38.966848)															
FDEE1F196AB4E4E2	electric_bike	2023-10-24 18:18:16	2023-10-24 18:20:47	32274.0	Beech Dr at Draper Dr Park	32274.0	38.866704106	-77.282257438	38.866659	-77.282077	member	afternoon	Tuesday	2.5166666666666666		POINT (-77.282257438 38.866704106)															
65C438D42810F9DB	classic_bike	2021-01-02 14:39:12	2021-01-02 14:39:23	31705.0	Benning Branch Library	31705.0	38.894	-76.947974	38.894	-76.947974	casual	afternoon	Saturday	0.18333333333333332	['Ward 1', 'Ward 2', 'Ward 3', 'Ward 4', 'Ward 5', 'Ward 6', 'Ward 7', 'Ward 8']	POINT (-76.947974 38.894)	100.0	11	001	02-102	1100102-102	A	Precinct 102	Precinct 102	00	G5240	N	683594.0	0.0	+38.8919234	-076.9484852
A6437E3EE3E6F899	classic_bike	2021-01-01 04:07:26	2021-01-01 04:59:15	31707.0	10th St & Constitution Ave NW	31219.0	38.889935	-76.93723	38.893028	-77.026013	casual	early morning	Friday	51.81666666666667		POINT (-76.93723 38.889935)	97.0	11	001	02-098	1100102-098	A	Precinct 98	Precinct 98	00	G5240	N	609010.0	4302.0	+38.8948210	-076.9363157
EFD3917EB2EBB548	classic_bike	2021-01-02 10:19:35	2021-01-02 11:02:03	32002.0	25th St & Pennsylvania Ave NW	31237.0	38.981103	-77.097426	38.903827	-77.053485	member	late morning	Saturday	42.46666666666667		POINT (-77.097426 38.981103)															
628682DF9BD56039	docked_bike	2021-01-02 15:04:48	2021-01-02 15:48:16	32048.0	34th & Water St NW	31314.0	38.984691	-77.094537	38.903732	-77.067529	casual	afternoon	Saturday	43.46666666666667		POINT (-77.094537 38.984691)															
0535306B61EF92F9	classic_bike	2021-01-01 00:19:06	2021-01-01 00:36:28	31617.0	Good Hope Rd & MLK Ave SE	31802.0	38.900413	-76.982872	38.867373	-76.988039	casual	early morning	Friday	17.366666666666667		POINT (-76.982872 38.900413)	92.0	11	001	02-079	1100102-079	A	Precinct 79	Precinct 79	00	G5240	N	1085092.0	189878.0	+38.9018589	-076.9663190
3A29A4477649D3F4	classic_bike	2023-11-03 16:51:18	2023-11-03 17:13:26	32278.0	Vienna Metro South	32260.0	38.846972	-77.303349	38.877415	-77.270731	member	afternoon	Friday	22.133333333333333		POINT (-77.303349 38.846972)															
D3CBE89227E4DB89	classic_bike	2021-02-25 09:58:27	2021-02-25 10:04:47	32073	Wheaton Metro / Georgia Ave & Reedie Dr	32062	39.04313	-77.05006	39.038423828518326	-77.05102041363716	casual	late morning	Thursday	6.333333333333333		POINT (-77.05006 39.04313)															
700680375FA9541E	classic_bike	2021-01-02 10:56:00	2021-01-02 11:05:15	31047.0	Market Square / King St & Royal St	31042.0	38.814577	-77.052808	38.804718	-77.043363	member	late morning	Saturday	9.25		POINT (-77.052808 38.814577)															
73F8B9C174276C31	classic_bike	2022-01-27 16:45:40	2022-01-27 16:48:40	31047.0	Powhatan St & Bashford Ln	31915.0	38.814577	-77.052808	38.818748	-77.047783	member	afternoon	Thursday	3.0		POINT (-77.052808 38.814577)															
E8C0E387AA3B861A	classic_bike	2022-02-02 18:36:14	2022-02-02 18:45:45	31969.0	Commonwealth Ave & E Monroe Ave	31913.0	38.813474	-77.053734	38.82005823354218	-77.06282079219818	member	afternoon	Wednesday	9.516666666666667		POINT (-77.05373400000001 38.813474)															
810EACC141F67478	classic_bike	2021-01-04 23:24:05	2021-01-04 23:38:44	31701.0	14th & D St SE	31663.0	38.8692	-76.9599	38.8840581	-76.9863852	member	night	Monday	14.65	['Ward 1', 'Ward 2', 'Ward 3', 'Ward 4', 'Ward 5', 'Ward 6', 'Ward 7', 'Ward 8']	POINT (-76.9599 38.8692)	96.0	11	001	02-109	1100102-109	A	Precinct 109	Precinct 109	00	G5240	N	660214.0	0.0	+38.8700448	-076.9552965
75E76B2B1745C301	classic_bike	2021-01-05 11:24:15	2021-01-05 11:40:49	32086.0	Briggs Chaney & Castle Dr	32086.0	39.081638	-76.945495	39.081638	-76.945495	member	late morning	Tuesday	16.566666666666666		POINT (-76.94549499999999 39.081638)															
F8F8088FECB5ECCC	classic_bike	2021-01-02 12:30:18	2021-01-02 12:54:14	32088.0	Briggs Chaney Park & Ride	32088.0	39.0778751	-76.9418666	39.0778751	-76.9418666	casual	late morning	Saturday	23.933333333333334		POINT (-76.9418666 39.0778751)															
